{
"type": "FeatureCollection",
"name": "dop_cur_dop_zps_parkomaty_b_dop_cur_dop_zps_parkomat",
"crs": { "type": "name", "properties": { "name": "urn:ogc:def:crs:OGC:1.3:CRS84" } },
"features": [
{ "type": "Feature", "properties": { "objectid": 62473, "id_poskyt": 38, "globalid": "{A5FCEFE1-27F9-475B-A9AF-DAAE837D200D}", "pa": "22000004", "px": "P22", "street": "Františka Diviše (nn7461)", "code": 22000004 }, "geometry": { "type": "Point", "coordinates": [ 14.596343266000076, 50.031047546000082 ] } },
{ "type": "Feature", "properties": { "objectid": 62474, "id_poskyt": 38, "globalid": "{7A2A7136-38BD-4E4F-86F7-05C77BA0505A}", "pa": "22000002", "px": "P22", "street": "Nové Náměstí", "code": 22000002 }, "geometry": { "type": "Point", "coordinates": [ 14.598720008000043, 50.031090009000081 ] } },
{ "type": "Feature", "properties": { "objectid": 62475, "id_poskyt": 38, "globalid": "{68909CFB-2267-4E63-A5CF-7052F3CC1431}", "pa": "22000001", "px": "P22", "street": "Nové Náměstí", "code": 22000001 }, "geometry": { "type": "Point", "coordinates": [ 14.59944001100007, 50.031450005000067 ] } },
{ "type": "Feature", "properties": { "objectid": 62476, "id_poskyt": 38, "globalid": "{8949CB63-05D8-44AD-8D50-4E0DF42A3561}", "pa": "16000001", "px": "P16", "street": "Sídliště", "code": 16000001 }, "geometry": { "type": "Point", "coordinates": [ 14.354032443000051, 49.980587967000076 ] } },
{ "type": "Feature", "properties": { "objectid": 62477, "id_poskyt": 38, "globalid": "{B37741A4-D7ED-4067-902F-9034B1DB2F92}", "pa": "13000002", "px": "P13", "street": "Petržílkova (nn3471)", "code": 13000002 }, "geometry": { "type": "Point", "coordinates": [ 14.347577677000061, 50.050975492000077 ] } },
{ "type": "Feature", "properties": { "objectid": 62478, "id_poskyt": 38, "globalid": "{4DAAAC6D-EFDA-4F9D-AE96-29806801A2C7}", "pa": "13000001", "px": "P13", "street": "Petržílkova (nn4543)", "code": 13000001 }, "geometry": { "type": "Point", "coordinates": [ 14.344226451000054, 50.050902581000059 ] } },
{ "type": "Feature", "properties": { "objectid": 62479, "id_poskyt": 38, "globalid": "{5D227202-CEE2-42CD-B2D0-A99BD763FDA5}", "pa": "8000114", "px": "P8", "street": "Střelničná", "code": 8000114 }, "geometry": { "type": "Point", "coordinates": [ 14.45785857900006, 50.125749797000026 ] } },
{ "type": "Feature", "properties": { "objectid": 62480, "id_poskyt": 38, "globalid": "{44D8F756-E1D9-4899-B539-746A832C7355}", "pa": "8000113", "px": "P8", "street": "Klapkova", "code": 8000113 }, "geometry": { "type": "Point", "coordinates": [ 14.454190754000024, 50.130947687000059 ] } },
{ "type": "Feature", "properties": { "objectid": 64673, "id_poskyt": 38, "globalid": "{2877645C-41A9-4028-AF64-3165EC59942B}", "pa": "8000112", "px": "P8", "street": "Mašínova", "code": 8000112 }, "geometry": { "type": "Point", "coordinates": [ 14.456787574000032, 50.130657986000074 ] } },
{ "type": "Feature", "properties": { "objectid": 64674, "id_poskyt": 38, "globalid": "{74F3E0BF-A6E5-4FFC-A886-5C35E9E5D9D0}", "pa": "8000111", "px": "P8", "street": "Čumpelíkova", "code": 8000111 }, "geometry": { "type": "Point", "coordinates": [ 14.460449674000074, 50.131870888000037 ] } },
{ "type": "Feature", "properties": { "objectid": 64675, "id_poskyt": 38, "globalid": "{DF651EBB-F4F5-465D-8319-54722C16C86D}", "pa": "8000110", "px": "P8", "street": "Šimůnkova (nn2525)", "code": 8000110 }, "geometry": { "type": "Point", "coordinates": [ 14.471059067000056, 50.133090398000036 ] } },
{ "type": "Feature", "properties": { "objectid": 64676, "id_poskyt": 38, "globalid": "{AA37CFA1-D04C-475F-9654-892BAB4E832E}", "pa": "8000109", "px": "P8", "street": "Kubíkova", "code": 8000109 }, "geometry": { "type": "Point", "coordinates": [ 14.473908752000057, 50.135391846000061 ] } },
{ "type": "Feature", "properties": { "objectid": 64677, "id_poskyt": 38, "globalid": "{9F97AF98-219D-4DCB-B680-ADA490A738C1}", "pa": "8000108", "px": "P8", "street": "Ďáblická (nn3241)", "code": 8000108 }, "geometry": { "type": "Point", "coordinates": [ 14.47857932900007, 50.136812557000042 ] } },
{ "type": "Feature", "properties": { "objectid": 64678, "id_poskyt": 38, "globalid": "{3AA6E858-A1DE-4ECE-B2C0-2EB56F95C199}", "pa": "8000107", "px": "P8", "street": "Ďáblická", "code": 8000107 }, "geometry": { "type": "Point", "coordinates": [ 14.478601394000066, 50.13565935400004 ] } },
{ "type": "Feature", "properties": { "objectid": 64679, "id_poskyt": 38, "globalid": "{555D02A3-635D-41D5-8AD8-761903487558}", "pa": "8000106", "px": "P8", "street": "Ďáblická (nn3243)", "code": 8000106 }, "geometry": { "type": "Point", "coordinates": [ 14.479499504000046, 50.131668836000074 ] } },
{ "type": "Feature", "properties": { "objectid": 64680, "id_poskyt": 38, "globalid": "{944729AD-2E94-42DD-A46B-22636D296FC1}", "pa": "8000105", "px": "P8", "street": "Ďáblická (nn3243)", "code": 8000105 }, "geometry": { "type": "Point", "coordinates": [ 14.480050150000068, 50.13073679200005 ] } },
{ "type": "Feature", "properties": { "objectid": 64681, "id_poskyt": 38, "globalid": "{470CB822-49DF-4C09-AB0C-9E787639A93B}", "pa": "8000103", "px": "P8", "street": "Bedřichovská", "code": 8000103 }, "geometry": { "type": "Point", "coordinates": [ 14.478575729000056, 50.125994487000071 ] } },
{ "type": "Feature", "properties": { "objectid": 64682, "id_poskyt": 38, "globalid": "{9A6B98E3-6294-476B-B7C2-CCBFD17295D1}", "pa": "8000101", "px": "P8", "street": "U Slovanky", "code": 8000101 }, "geometry": { "type": "Point", "coordinates": [ 14.469987227000047, 50.125014089000047 ] } },
{ "type": "Feature", "properties": { "objectid": 64683, "id_poskyt": 38, "globalid": "{DDC52C4B-A4A9-4D36-9B28-0D03894C0C99}", "pa": "8000100", "px": "P8", "street": "Třebenická (??? (-280))", "code": 8000100 }, "geometry": { "type": "Point", "coordinates": [ 14.479551264000065, 50.129920652000067 ] } },
{ "type": "Feature", "properties": { "objectid": 64684, "id_poskyt": 38, "globalid": "{F64133CE-04ED-4FFB-A57D-C4690314A3FE}", "pa": "8000099", "px": "P8", "street": "Davídkova (nn3940)", "code": 8000099 }, "geometry": { "type": "Point", "coordinates": [ 14.473612222000042, 50.127548850000039 ] } },
{ "type": "Feature", "properties": { "objectid": 64685, "id_poskyt": 38, "globalid": "{CAAACA1F-D7B1-4479-AC1E-D0DDFC20A3CA}", "pa": "8000098", "px": "P8", "street": "Kyselova", "code": 8000098 }, "geometry": { "type": "Point", "coordinates": [ 14.467195992000029, 50.127433911000026 ] } },
{ "type": "Feature", "properties": { "objectid": 64686, "id_poskyt": 38, "globalid": "{E29B951C-3A77-4B7A-96BD-DE87AC165C51}", "pa": "8000097", "px": "P8", "street": "Kyselova (nn4981)", "code": 8000097 }, "geometry": { "type": "Point", "coordinates": [ 14.468193450000058, 50.127855424000074 ] } },
{ "type": "Feature", "properties": { "objectid": 64687, "id_poskyt": 38, "globalid": "{85C349DE-2BFF-4301-8E77-E63F37576EC9}", "pa": "8000096", "px": "P8", "street": "Hlaváčova", "code": 8000096 }, "geometry": { "type": "Point", "coordinates": [ 14.469408920000035, 50.129843515000061 ] } },
{ "type": "Feature", "properties": { "objectid": 64688, "id_poskyt": 38, "globalid": "{DAAAE13B-0965-4329-942E-2C6953CC79D2}", "pa": "8000095", "px": "P8", "street": "Famfulíkova (nn276)", "code": 8000095 }, "geometry": { "type": "Point", "coordinates": [ 14.471682821000059, 50.132153513000048 ] } },
{ "type": "Feature", "properties": { "objectid": 64689, "id_poskyt": 38, "globalid": "{DC0A6ECB-51F0-4AEE-B671-CF2233D7DB04}", "pa": "8000094", "px": "P8", "street": "Čumpelíkova (nn5081)", "code": 8000094 }, "geometry": { "type": "Point", "coordinates": [ 14.461655699000062, 50.131936190000033 ] } },
{ "type": "Feature", "properties": { "objectid": 64690, "id_poskyt": 38, "globalid": "{7DED7E6F-B6D5-4EB0-9D5D-67159F5F8E8C}", "pa": "8000093", "px": "P8", "street": "Čumpelíkova", "code": 8000093 }, "geometry": { "type": "Point", "coordinates": [ 14.460867289000078, 50.126505383000051 ] } },
{ "type": "Feature", "properties": { "objectid": 64691, "id_poskyt": 38, "globalid": "{92EEFFDD-C173-4C25-B17D-81AB4FD4B7CE}", "pa": "8000092", "px": "P8", "street": "U Školské Zahrady", "code": 8000092 }, "geometry": { "type": "Point", "coordinates": [ 14.458832395000059, 50.12486552200005 ] } },
{ "type": "Feature", "properties": { "objectid": 64692, "id_poskyt": 38, "globalid": "{B05FC2BD-E3EC-439E-A1A5-1DD455CBA4C0}", "pa": "8000091", "px": "P8", "street": "Pod Statky", "code": 8000091 }, "geometry": { "type": "Point", "coordinates": [ 14.457629222000037, 50.122345094000082 ] } },
{ "type": "Feature", "properties": { "objectid": 64693, "id_poskyt": 38, "globalid": "{151B2FD2-D6DC-4F05-AEF5-A4A81A30FE21}", "pa": "8000090", "px": "P8", "street": "Trojská", "code": 8000090 }, "geometry": { "type": "Point", "coordinates": [ 14.454512702000045, 50.12181337800007 ] } },
{ "type": "Feature", "properties": { "objectid": 64694, "id_poskyt": 38, "globalid": "{28DA69F5-0AC6-4597-A47E-D22A151B208D}", "pa": "8000089", "px": "P8", "street": "Na Pěšinách", "code": 8000089 }, "geometry": { "type": "Point", "coordinates": [ 14.457262073000038, 50.123802115000046 ] } },
{ "type": "Feature", "properties": { "objectid": 64695, "id_poskyt": 38, "globalid": "{B4DD4A00-2B9C-4884-8B4A-3DEE6F4B36DD}", "pa": "8000088", "px": "P8", "street": "Klapkova", "code": 8000088 }, "geometry": { "type": "Point", "coordinates": [ 14.455997721000074, 50.123922112000059 ] } },
{ "type": "Feature", "properties": { "objectid": 64696, "id_poskyt": 38, "globalid": "{40AD5F86-8779-4172-8C76-F53E1968C404}", "pa": "8000087", "px": "P8", "street": "Ke Stírce", "code": 8000087 }, "geometry": { "type": "Point", "coordinates": [ 14.455354802000045, 50.122601872000075 ] } },
{ "type": "Feature", "properties": { "objectid": 64697, "id_poskyt": 38, "globalid": "{E20A279B-FD8D-4CCC-8B07-A66CC1646643}", "pa": "8000086", "px": "P8", "street": "Kobyliské Náměstí", "code": 8000086 }, "geometry": { "type": "Point", "coordinates": [ 14.452139595000062, 50.123414706000062 ] } },
{ "type": "Feature", "properties": { "objectid": 64698, "id_poskyt": 38, "globalid": "{2E030E61-B605-49B9-8CE0-369F6CD6C10D}", "pa": "8000085", "px": "P8", "street": "Vršní", "code": 8000085 }, "geometry": { "type": "Point", "coordinates": [ 14.453898009000056, 50.12562588600008 ] } },
{ "type": "Feature", "properties": { "objectid": 64699, "id_poskyt": 38, "globalid": "{51B25D97-0C1C-47A5-AB59-95C1F4670E06}", "pa": "8000084", "px": "P8", "street": "Na Pecích", "code": 8000084 }, "geometry": { "type": "Point", "coordinates": [ 14.456131646000074, 50.126199912000061 ] } },
{ "type": "Feature", "properties": { "objectid": 64700, "id_poskyt": 38, "globalid": "{7FA3FC80-D126-4FAE-B051-6B6C30B180C9}", "pa": "8000083", "px": "P8", "street": "Bořanovická", "code": 8000083 }, "geometry": { "type": "Point", "coordinates": [ 14.456264440000041, 50.127334287000053 ] } },
{ "type": "Feature", "properties": { "objectid": 64701, "id_poskyt": 38, "globalid": "{9BFB49A6-41B7-445F-8C8D-45DF8636BDAF}", "pa": "8000082", "px": "P8", "street": "Líbeznická", "code": 8000082 }, "geometry": { "type": "Point", "coordinates": [ 14.454908182000054, 50.128428919000044 ] } },
{ "type": "Feature", "properties": { "objectid": 64702, "id_poskyt": 38, "globalid": "{637367BE-6F1E-4696-96BB-58421206286D}", "pa": "8000081", "px": "P8", "street": "Přemyšlenská (nn7430)", "code": 8000081 }, "geometry": { "type": "Point", "coordinates": [ 14.451467865000041, 50.126933069000074 ] } },
{ "type": "Feature", "properties": { "objectid": 64703, "id_poskyt": 38, "globalid": "{3BAA2207-7FF0-4C5A-9107-8BD7D5A8C01E}", "pa": "8000080", "px": "P8", "street": "Trousilova", "code": 8000080 }, "geometry": { "type": "Point", "coordinates": [ 14.450310478000063, 50.127284901000053 ] } },
{ "type": "Feature", "properties": { "objectid": 64704, "id_poskyt": 38, "globalid": "{EFE12CB5-7E13-4C34-9927-39FE8B5F64A5}", "pa": "8000064", "px": "P8", "street": "Sokolovská", "code": 8000064 }, "geometry": { "type": "Point", "coordinates": [ 14.466010446000041, 50.098052883000037 ] } },
{ "type": "Feature", "properties": { "objectid": 64705, "id_poskyt": 38, "globalid": "{6EB7FFF3-3C6A-428B-AB8E-677EEFDF95EA}", "pa": "8000063", "px": "P8", "street": "Primátorská", "code": 8000063 }, "geometry": { "type": "Point", "coordinates": [ 14.472072008000055, 50.111008268000035 ] } },
{ "type": "Feature", "properties": { "objectid": 64706, "id_poskyt": 38, "globalid": "{A63D2E51-7515-4677-8939-5947E414436E}", "pa": "8000062", "px": "P8", "street": "U Libeňského Pivovaru", "code": 8000062 }, "geometry": { "type": "Point", "coordinates": [ 14.47535365300007, 50.109564435000038 ] } },
{ "type": "Feature", "properties": { "objectid": 64707, "id_poskyt": 38, "globalid": "{89CDC11A-7D6F-474F-A274-255B41178605}", "pa": "8000061", "px": "P8", "street": "U Meteoru", "code": 8000061 }, "geometry": { "type": "Point", "coordinates": [ 14.471401198000024, 50.109173053000063 ] } },
{ "type": "Feature", "properties": { "objectid": 64708, "id_poskyt": 38, "globalid": "{11B0A397-B28F-42F4-BF21-49F90D04116B}", "pa": "8000059", "px": "P8", "street": "Sokolovská", "code": 8000059 }, "geometry": { "type": "Point", "coordinates": [ 14.478657035000026, 50.103197864000037 ] } },
{ "type": "Feature", "properties": { "objectid": 64709, "id_poskyt": 38, "globalid": "{6356F524-A1D1-4EAE-8335-F901CA4524BB}", "pa": "8000058", "px": "P8", "street": "Vacínova", "code": 8000058 }, "geometry": { "type": "Point", "coordinates": [ 14.478004462000058, 50.103286473000026 ] } },
{ "type": "Feature", "properties": { "objectid": 64710, "id_poskyt": 38, "globalid": "{AB9918BC-59C7-4148-B468-434768FDE85B}", "pa": "8000057", "px": "P8", "street": "Sokolovská", "code": 8000057 }, "geometry": { "type": "Point", "coordinates": [ 14.476800014000048, 50.102569075000076 ] } },
{ "type": "Feature", "properties": { "objectid": 64711, "id_poskyt": 38, "globalid": "{8DFAA2C1-3B01-46BC-A0EB-7F43BC23FE52}", "pa": "8000056", "px": "P8", "street": "Sokolovská", "code": 8000056 }, "geometry": { "type": "Point", "coordinates": [ 14.476885321000054, 50.10283888500004 ] } },
{ "type": "Feature", "properties": { "objectid": 64712, "id_poskyt": 38, "globalid": "{D6F56A2B-B8E9-4D22-A296-5265772E22A6}", "pa": "8000055", "px": "P8", "street": "Sokolovská", "code": 8000055 }, "geometry": { "type": "Point", "coordinates": [ 14.474815776000071, 50.102089043000035 ] } },
{ "type": "Feature", "properties": { "objectid": 64713, "id_poskyt": 38, "globalid": "{EA1FB5FE-6B25-4221-B880-4ED6501A7559}", "pa": "8000054", "px": "P8", "street": "Novákových", "code": 8000054 }, "geometry": { "type": "Point", "coordinates": [ 14.474083979000056, 50.102950068000041 ] } },
{ "type": "Feature", "properties": { "objectid": 64714, "id_poskyt": 38, "globalid": "{CA0CD328-BA04-413F-B9C1-D20FAF413CE5}", "pa": "8000053", "px": "P8", "street": "Novákových", "code": 8000053 }, "geometry": { "type": "Point", "coordinates": [ 14.477518674000066, 50.104052047000039 ] } },
{ "type": "Feature", "properties": { "objectid": 64715, "id_poskyt": 38, "globalid": "{FBBEE06D-7DC4-4856-B898-F73B1CB8A5EB}", "pa": "8000052", "px": "P8", "street": "Na Žertvách", "code": 8000052 }, "geometry": { "type": "Point", "coordinates": [ 14.478597843000045, 50.105093117000081 ] } },
{ "type": "Feature", "properties": { "objectid": 64716, "id_poskyt": 38, "globalid": "{610A3905-F7EA-4C2D-812E-92BF5C8F50F2}", "pa": "8000051", "px": "P8", "street": "Kotlaska", "code": 8000051 }, "geometry": { "type": "Point", "coordinates": [ 14.478133766000042, 50.105985129000032 ] } },
{ "type": "Feature", "properties": { "objectid": 64717, "id_poskyt": 38, "globalid": "{06FCDEFC-1F36-439B-B39A-D0E89CFAFAC1}", "pa": "8000050", "px": "P8", "street": "Na Hrázi", "code": 8000050 }, "geometry": { "type": "Point", "coordinates": [ 14.47590440700003, 50.105453819000047 ] } },
{ "type": "Feature", "properties": { "objectid": 64718, "id_poskyt": 38, "globalid": "{5B71126F-10E2-4FFB-84AA-D3D618B32A97}", "pa": "8000049", "px": "P8", "street": "Ludmilina", "code": 8000049 }, "geometry": { "type": "Point", "coordinates": [ 14.474059277000038, 50.104678843000045 ] } },
{ "type": "Feature", "properties": { "objectid": 64719, "id_poskyt": 38, "globalid": "{DC993107-BBC4-4143-B9A1-1E5D91935AEB}", "pa": "8000048", "px": "P8", "street": "Zenklova", "code": 8000048 }, "geometry": { "type": "Point", "coordinates": [ 14.473098625000034, 50.105051493000076 ] } },
{ "type": "Feature", "properties": { "objectid": 64720, "id_poskyt": 38, "globalid": "{DFD6CFB5-9F54-408F-911A-0AB0DA9EB5A8}", "pa": "8000046", "px": "P8", "street": "Náměstí Dr. Václava Holého", "code": 8000046 }, "geometry": { "type": "Point", "coordinates": [ 14.474089263000053, 50.106592136000074 ] } },
{ "type": "Feature", "properties": { "objectid": 64721, "id_poskyt": 38, "globalid": "{53299009-7617-4539-BCB6-06CF7101AFC4}", "pa": "8000045", "px": "P8", "street": "Zenklova", "code": 8000045 }, "geometry": { "type": "Point", "coordinates": [ 14.472813028000076, 50.106370224000045 ] } },
{ "type": "Feature", "properties": { "objectid": 64722, "id_poskyt": 38, "globalid": "{2CB7418F-54A4-471D-AE5E-98B66831F2F0}", "pa": "8000044", "px": "P8", "street": "Koželužská", "code": 8000044 }, "geometry": { "type": "Point", "coordinates": [ 14.471173531000034, 50.105567624000059 ] } },
{ "type": "Feature", "properties": { "objectid": 64723, "id_poskyt": 38, "globalid": "{BC5D749F-1A69-4C2F-AA78-152CC7357317}", "pa": "8000043", "px": "P8", "street": "Voctářova", "code": 8000043 }, "geometry": { "type": "Point", "coordinates": [ 14.469845682000027, 50.104409070000031 ] } },
{ "type": "Feature", "properties": { "objectid": 64724, "id_poskyt": 38, "globalid": "{16ED84DD-20D3-49D8-A509-36C99C69C992}", "pa": "8000042", "px": "P8", "street": "Libeňský Most", "code": 8000042 }, "geometry": { "type": "Point", "coordinates": [ 14.470329999000057, 50.103419953000071 ] } },
{ "type": "Feature", "properties": { "objectid": 64725, "id_poskyt": 38, "globalid": "{3BB2AC6A-1DF7-462D-8054-C571DC2BD2E4}", "pa": "8000041", "px": "P8", "street": "Na Kopečku", "code": 8000041 }, "geometry": { "type": "Point", "coordinates": [ 14.471296146000043, 50.099916194000059 ] } },
{ "type": "Feature", "properties": { "objectid": 64726, "id_poskyt": 38, "globalid": "{0DFFA2B1-55AF-4126-AD0D-B7936F445EB9}", "pa": "8000040", "px": "P8", "street": "Sokolovská", "code": 8000040 }, "geometry": { "type": "Point", "coordinates": [ 14.470698603000073, 50.100057433000075 ] } },
{ "type": "Feature", "properties": { "objectid": 64727, "id_poskyt": 38, "globalid": "{60616F95-A9D9-4D95-ADB5-3D726C2EB7C4}", "pa": "8000039", "px": "P8", "street": "Švábky", "code": 8000039 }, "geometry": { "type": "Point", "coordinates": [ 14.467771073000051, 50.100220117000049 ] } },
{ "type": "Feature", "properties": { "objectid": 64728, "id_poskyt": 38, "globalid": "{ACF54806-A132-48DC-A19A-0F337CBDE48E}", "pa": "8000038", "px": "P8", "street": "Sokolovská", "code": 8000038 }, "geometry": { "type": "Point", "coordinates": [ 14.468131433000053, 50.098898076000069 ] } },
{ "type": "Feature", "properties": { "objectid": 64729, "id_poskyt": 38, "globalid": "{6A317E5A-D43E-4502-9E40-59998541CE0B}", "pa": "8000037", "px": "P8", "street": "U Sluncové", "code": 8000037 }, "geometry": { "type": "Point", "coordinates": [ 14.470640981000031, 50.096303179000074 ] } },
{ "type": "Feature", "properties": { "objectid": 64730, "id_poskyt": 38, "globalid": "{8A9C504B-DDC7-4CE8-9003-41183468D427}", "pa": "8000036", "px": "P8", "street": "U Sluncové", "code": 8000036 }, "geometry": { "type": "Point", "coordinates": [ 14.46720764500003, 50.09460806800007 ] } },
{ "type": "Feature", "properties": { "objectid": 64731, "id_poskyt": 38, "globalid": "{C36EC86C-598D-43F6-8F4D-7B8769C37942}", "pa": "8000035", "px": "P8", "street": "Molákova (nn5068)", "code": 8000035 }, "geometry": { "type": "Point", "coordinates": [ 14.464719686000024, 50.096908019000068 ] } },
{ "type": "Feature", "properties": { "objectid": 64732, "id_poskyt": 38, "globalid": "{ADBEDFE1-5A0A-4EE5-B6DB-AC885F2CD580}", "pa": "8000034", "px": "P8", "street": "Za Invalidovnou", "code": 8000034 }, "geometry": { "type": "Point", "coordinates": [ 14.46262064900003, 50.096311259000061 ] } },
{ "type": "Feature", "properties": { "objectid": 64733, "id_poskyt": 38, "globalid": "{18912748-0B65-45C7-9615-DFFB842B6CA8}", "pa": "8000033", "px": "P8", "street": "Pernerova", "code": 8000033 }, "geometry": { "type": "Point", "coordinates": [ 14.458962326000062, 50.092553725000073 ] } },
{ "type": "Feature", "properties": { "objectid": 64734, "id_poskyt": 38, "globalid": "{88007639-25FF-4013-8D4F-06A2C68FFD31}", "pa": "8000032", "px": "P8", "street": "Křižíkova", "code": 8000032 }, "geometry": { "type": "Point", "coordinates": [ 14.458120574000077, 50.093975390000026 ] } },
{ "type": "Feature", "properties": { "objectid": 64735, "id_poskyt": 38, "globalid": "{C3DCA5EF-1939-42C7-9705-60EFB487AE38}", "pa": "8000031", "px": "P8", "street": "Urxova", "code": 8000031 }, "geometry": { "type": "Point", "coordinates": [ 14.457370455000046, 50.094759151000062 ] } },
{ "type": "Feature", "properties": { "objectid": 64736, "id_poskyt": 38, "globalid": "{AAC04A3A-E6DA-4380-9A4B-7758F461A1B1}", "pa": "8000029", "px": "P8", "street": "Křižíkova", "code": 8000029 }, "geometry": { "type": "Point", "coordinates": [ 14.453527810000026, 50.093105435000041 ] } },
{ "type": "Feature", "properties": { "objectid": 64737, "id_poskyt": 38, "globalid": "{418F5A7B-14F4-4A23-BFEF-01BBD7AF1306}", "pa": "8000028", "px": "P8", "street": "Sokolovská", "code": 8000028 }, "geometry": { "type": "Point", "coordinates": [ 14.453402870000048, 50.094603075000066 ] } },
{ "type": "Feature", "properties": { "objectid": 64738, "id_poskyt": 38, "globalid": "{DAAD211B-A7C6-488A-A837-2C7041F2E530}", "pa": "8000027", "px": "P8", "street": "Pobřežní", "code": 8000027 }, "geometry": { "type": "Point", "coordinates": [ 14.453274299000043, 50.095069073000047 ] } },
{ "type": "Feature", "properties": { "objectid": 64739, "id_poskyt": 38, "globalid": "{ED40C60F-66D1-437B-873D-3D2C1CE5ADD5}", "pa": "8000026", "px": "P8", "street": "Thámova", "code": 8000026 }, "geometry": { "type": "Point", "coordinates": [ 14.452902671000061, 50.091569480000032 ] } },
{ "type": "Feature", "properties": { "objectid": 64740, "id_poskyt": 38, "globalid": "{7466B11D-87E3-4F13-8D37-E883669CC951}", "pa": "8000025", "px": "P8", "street": "Thámova", "code": 8000025 }, "geometry": { "type": "Point", "coordinates": [ 14.451083734000065, 50.094508605000044 ] } },
{ "type": "Feature", "properties": { "objectid": 64741, "id_poskyt": 38, "globalid": "{78A4575A-03B0-45C4-94CB-E4FB2488B43F}", "pa": "8000024", "px": "P8", "street": "Pobřežní", "code": 8000024 }, "geometry": { "type": "Point", "coordinates": [ 14.449801914000034, 50.094303699000079 ] } },
{ "type": "Feature", "properties": { "objectid": 64742, "id_poskyt": 38, "globalid": "{F2AC86A9-0ECB-4275-9D92-9FE165D4002C}", "pa": "8000023", "px": "P8", "street": "Pernerova", "code": 8000023 }, "geometry": { "type": "Point", "coordinates": [ 14.450990467000054, 50.090465661000053 ] } },
{ "type": "Feature", "properties": { "objectid": 64743, "id_poskyt": 38, "globalid": "{3A0EF7F9-23F1-4508-8433-583777B9A82B}", "pa": "8000021", "px": "P8", "street": "Sokolovská", "code": 8000021 }, "geometry": { "type": "Point", "coordinates": [ 14.449404783000034, 50.09350138800005 ] } },
{ "type": "Feature", "properties": { "objectid": 64744, "id_poskyt": 38, "globalid": "{5FE47EBC-818D-4D52-8442-8A395FD2172D}", "pa": "8000020", "px": "P8", "street": "Pobřežní", "code": 8000020 }, "geometry": { "type": "Point", "coordinates": [ 14.447969275000048, 50.093893702000059 ] } },
{ "type": "Feature", "properties": { "objectid": 64745, "id_poskyt": 38, "globalid": "{4597E8E1-22CB-4343-BADE-A6E7A812589C}", "pa": "8000019", "px": "P8", "street": "Kollárova", "code": 8000019 }, "geometry": { "type": "Point", "coordinates": [ 14.449028579000071, 50.091474610000034 ] } },
{ "type": "Feature", "properties": { "objectid": 64746, "id_poskyt": 38, "globalid": "{75633412-7D01-457A-ACBE-4B4329E4AB85}", "pa": "8000018", "px": "P8", "street": "Křižíkova", "code": 8000018 }, "geometry": { "type": "Point", "coordinates": [ 14.448485485000049, 50.091989970000043 ] } },
{ "type": "Feature", "properties": { "objectid": 64747, "id_poskyt": 38, "globalid": "{BEF62238-091A-431D-95AA-C27923744906}", "pa": "8000017", "px": "P8", "street": "Karlínské Náměstí", "code": 8000017 }, "geometry": { "type": "Point", "coordinates": [ 14.446719649000045, 50.091939324000066 ] } },
{ "type": "Feature", "properties": { "objectid": 64748, "id_poskyt": 38, "globalid": "{9E13C0B3-7CCE-4C11-BAC2-6B7EA155387E}", "pa": "8000016", "px": "P8", "street": "Křižíkova", "code": 8000016 }, "geometry": { "type": "Point", "coordinates": [ 14.446101681000073, 50.091298577000032 ] } },
{ "type": "Feature", "properties": { "objectid": 64749, "id_poskyt": 38, "globalid": "{28BA16FA-F358-45EC-9135-B9FE31E0CD86}", "pa": "8000015", "px": "P8", "street": "Sokolovská", "code": 8000015 }, "geometry": { "type": "Point", "coordinates": [ 14.445873364000022, 50.092879896000056 ] } },
{ "type": "Feature", "properties": { "objectid": 64750, "id_poskyt": 38, "globalid": "{76CD8BFD-FEBF-47E3-9CC0-A14FB352D49C}", "pa": "8000014", "px": "P8", "street": "U Nádražní Lávky (nn5246)", "code": 8000014 }, "geometry": { "type": "Point", "coordinates": [ 14.446075379000035, 50.093364160000078 ] } },
{ "type": "Feature", "properties": { "objectid": 64751, "id_poskyt": 38, "globalid": "{2624EE9C-D107-4024-B1EA-109255287A26}", "pa": "8000013", "px": "P8", "street": "Vítkova", "code": 8000013 }, "geometry": { "type": "Point", "coordinates": [ 14.446068558000036, 50.090082236000057 ] } },
{ "type": "Feature", "properties": { "objectid": 64752, "id_poskyt": 38, "globalid": "{454215B2-1E03-4D1B-85E0-2130FFD2015A}", "pa": "8000012", "px": "P8", "street": "Vítkova", "code": 8000012 }, "geometry": { "type": "Point", "coordinates": [ 14.445044377000045, 50.091794804000074 ] } },
{ "type": "Feature", "properties": { "objectid": 64753, "id_poskyt": 38, "globalid": "{B9C9E6D9-32EF-4C18-A94D-0E9DDA4C3A70}", "pa": "8000011", "px": "P8", "street": "Vítkova", "code": 8000011 }, "geometry": { "type": "Point", "coordinates": [ 14.444133129000022, 50.093082992000063 ] } },
{ "type": "Feature", "properties": { "objectid": 64754, "id_poskyt": 38, "globalid": "{454C05FC-F55A-452C-9D6F-2EDD056F88BA}", "pa": "8000010", "px": "P8", "street": "Pernerova", "code": 8000010 }, "geometry": { "type": "Point", "coordinates": [ 14.443872414000055, 50.088978913000062 ] } },
{ "type": "Feature", "properties": { "objectid": 64755, "id_poskyt": 38, "globalid": "{B8406927-65C5-4000-BAC9-81E6AC46664F}", "pa": "8000009", "px": "P8", "street": "Křižíkova", "code": 8000009 }, "geometry": { "type": "Point", "coordinates": [ 14.44395727400007, 50.090865654000027 ] } },
{ "type": "Feature", "properties": { "objectid": 64756, "id_poskyt": 38, "globalid": "{3A6C06B4-BF51-40B9-A9D2-9B77DB5E753A}", "pa": "8000008", "px": "P8", "street": "Sokolovská", "code": 8000008 }, "geometry": { "type": "Point", "coordinates": [ 14.44373196600003, 50.092424090000065 ] } },
{ "type": "Feature", "properties": { "objectid": 64757, "id_poskyt": 38, "globalid": "{9B3B84A4-470D-4036-B063-0E2E4FE242FE}", "pa": "8000007", "px": "P8", "street": "Prvního Pluku", "code": 8000007 }, "geometry": { "type": "Point", "coordinates": [ 14.442564238000045, 50.091431699000054 ] } },
{ "type": "Feature", "properties": { "objectid": 64758, "id_poskyt": 38, "globalid": "{0F99F775-9015-4DC7-BAC7-A9BC7138091B}", "pa": "8000006", "px": "P8", "street": "Prvního Pluku", "code": 8000006 }, "geometry": { "type": "Point", "coordinates": [ 14.442011440000044, 50.09256817000005 ] } },
{ "type": "Feature", "properties": { "objectid": 64759, "id_poskyt": 38, "globalid": "{DF9C3FC3-8960-403B-BDD6-18FAEE020F44}", "pa": "8000005", "px": "P8", "street": "Křižíkova", "code": 8000005 }, "geometry": { "type": "Point", "coordinates": [ 14.441392445000076, 50.090448897000044 ] } },
{ "type": "Feature", "properties": { "objectid": 64760, "id_poskyt": 38, "globalid": "{C7AFC0F8-E0B5-46DE-98D8-E7D8D6973504}", "pa": "8000004", "px": "P8", "street": "Za Poříčskou Bránou", "code": 8000004 }, "geometry": { "type": "Point", "coordinates": [ 14.440077755000061, 50.090539896000053 ] } },
{ "type": "Feature", "properties": { "objectid": 64761, "id_poskyt": 38, "globalid": "{9F366AC9-7A2F-4006-8225-EF5F6AD7FFFC}", "pa": "8000003", "px": "P8", "street": "Sokolovská", "code": 8000003 }, "geometry": { "type": "Point", "coordinates": [ 14.439331981000066, 50.091433226000049 ] } },
{ "type": "Feature", "properties": { "objectid": 64762, "id_poskyt": 38, "globalid": "{BE698538-4FFE-4E38-9037-2C56D517D820}", "pa": "8000002", "px": "P8", "street": "Pobřežní", "code": 8000002 }, "geometry": { "type": "Point", "coordinates": [ 14.43974177900003, 50.092427502000078 ] } },
{ "type": "Feature", "properties": { "objectid": 64763, "id_poskyt": 38, "globalid": "{EF95CEBD-78E0-4068-A5CF-A77D4D637A25}", "pa": "8000001", "px": "P8", "street": "Rohanské Nábřeží", "code": 8000001 }, "geometry": { "type": "Point", "coordinates": [ 14.439996903000065, 50.093916756000056 ] } },
{ "type": "Feature", "properties": { "objectid": 64764, "id_poskyt": 38, "globalid": "{715F0DD5-3C59-4689-BF46-4C878C01EF2E}", "pa": "7000094", "px": "P7", "street": "Železničářů", "code": 7000094 }, "geometry": { "type": "Point", "coordinates": [ 14.44165636200006, 50.107467367000027 ] } },
{ "type": "Feature", "properties": { "objectid": 64765, "id_poskyt": 38, "globalid": "{6B8BC191-D99D-4689-A41C-2469BC6A7F70}", "pa": "7000093", "px": "P7", "street": "Jablonského", "code": 7000093 }, "geometry": { "type": "Point", "coordinates": [ 14.440906471000062, 50.107430718000046 ] } },
{ "type": "Feature", "properties": { "objectid": 64766, "id_poskyt": 38, "globalid": "{E6222BD7-7260-4A33-B758-F1551C516AEA}", "pa": "7000092", "px": "P7", "street": "Rajská", "code": 7000092 }, "geometry": { "type": "Point", "coordinates": [ 14.440046856000038, 50.107722882000076 ] } },
{ "type": "Feature", "properties": { "objectid": 64767, "id_poskyt": 38, "globalid": "{624E687A-BFD6-4416-87FF-F85D2167E84C}", "pa": "7000091", "px": "P7", "street": "U Papírny", "code": 7000091 }, "geometry": { "type": "Point", "coordinates": [ 14.438355258000058, 50.107814679000057 ] } },
{ "type": "Feature", "properties": { "objectid": 64768, "id_poskyt": 38, "globalid": "{F960ED91-47D6-40B1-9059-237428C996C4}", "pa": "7000090", "px": "P7", "street": "U Papírny", "code": 7000090 }, "geometry": { "type": "Point", "coordinates": [ 14.437709856000026, 50.107170157000041 ] } },
{ "type": "Feature", "properties": { "objectid": 64769, "id_poskyt": 38, "globalid": "{4B7A8AEE-B064-4761-9A77-B0A4E1154BE4}", "pa": "7000089", "px": "P7", "street": "U Papírny", "code": 7000089 }, "geometry": { "type": "Point", "coordinates": [ 14.437073761000022, 50.106466091000073 ] } },
{ "type": "Feature", "properties": { "objectid": 64770, "id_poskyt": 38, "globalid": "{18CF7264-E181-46D8-A0DC-B072C58A78FC}", "pa": "7000088", "px": "P7", "street": "Za Elektrárnou", "code": 7000088 }, "geometry": { "type": "Point", "coordinates": [ 14.43474496400006, 50.106885168000076 ] } },
{ "type": "Feature", "properties": { "objectid": 64771, "id_poskyt": 38, "globalid": "{F46C0DED-6FF7-45F5-8BD7-BFB70934B32C}", "pa": "7000087", "px": "P7", "street": "Veletržní", "code": 7000087 }, "geometry": { "type": "Point", "coordinates": [ 14.435626748000061, 50.10265277700006 ] } },
{ "type": "Feature", "properties": { "objectid": 64772, "id_poskyt": 38, "globalid": "{9A724669-FD5C-43A7-ADB3-95D923516E86}", "pa": "7000086", "px": "P7", "street": "Strojnická", "code": 7000086 }, "geometry": { "type": "Point", "coordinates": [ 14.432222008000053, 50.103935660000047 ] } },
{ "type": "Feature", "properties": { "objectid": 64773, "id_poskyt": 38, "globalid": "{8F0A946E-D444-4CB8-B482-5CC84EBDB6C8}", "pa": "7000085", "px": "P7", "street": "Dukelských Hrdinů", "code": 7000085 }, "geometry": { "type": "Point", "coordinates": [ 14.431919964000031, 50.103353497000057 ] } },
{ "type": "Feature", "properties": { "objectid": 64774, "id_poskyt": 38, "globalid": "{AB05ABEB-525E-487A-B6E5-A906FF8CAA75}", "pa": "7000083", "px": "P7", "street": "Dukelských Hrdinů", "code": 7000083 }, "geometry": { "type": "Point", "coordinates": [ 14.433232497000063, 50.100163575000067 ] } },
{ "type": "Feature", "properties": { "objectid": 64775, "id_poskyt": 38, "globalid": "{73F67A91-C934-4C47-AB3B-860F66A8D72F}", "pa": "7000080", "px": "P7", "street": "Heřmanova", "code": 7000080 }, "geometry": { "type": "Point", "coordinates": [ 14.435114135000049, 50.100468825000064 ] } },
{ "type": "Feature", "properties": { "objectid": 64776, "id_poskyt": 38, "globalid": "{34A514E0-42D2-4D2A-A21F-D3437AC5F274}", "pa": "7000079", "px": "P7", "street": "Heřmanova", "code": 7000079 }, "geometry": { "type": "Point", "coordinates": [ 14.432432333000065, 50.100594498000078 ] } },
{ "type": "Feature", "properties": { "objectid": 64777, "id_poskyt": 38, "globalid": "{DE5CA647-48AE-49A2-83A0-93019A962485}", "pa": "7000078", "px": "P7", "street": "Milady Horákové", "code": 7000078 }, "geometry": { "type": "Point", "coordinates": [ 14.431151548000059, 50.099313434000067 ] } },
{ "type": "Feature", "properties": { "objectid": 64778, "id_poskyt": 38, "globalid": "{89A10E2E-CA54-4111-AB2C-C53D6019BFB1}", "pa": "7000077", "px": "P7", "street": "Milady Horákové", "code": 7000077 }, "geometry": { "type": "Point", "coordinates": [ 14.431123186000036, 50.099193360000072 ] } },
{ "type": "Feature", "properties": { "objectid": 64779, "id_poskyt": 38, "globalid": "{2AE9703E-30F8-48F4-BB40-A0BA3086BA36}", "pa": "7000076", "px": "P7", "street": "Milady Horákové", "code": 7000076 }, "geometry": { "type": "Point", "coordinates": [ 14.429982720000055, 50.099365935000037 ] } },
{ "type": "Feature", "properties": { "objectid": 64780, "id_poskyt": 38, "globalid": "{71C2813E-E57D-426C-B2A3-1B5DA3DD0C57}", "pa": "7000075", "px": "P7", "street": "Milady Horákové", "code": 7000075 }, "geometry": { "type": "Point", "coordinates": [ 14.427893310000059, 50.099687838000079 ] } },
{ "type": "Feature", "properties": { "objectid": 64781, "id_poskyt": 38, "globalid": "{10677173-D440-4AAF-9EEF-CCFCF99D2ADB}", "pa": "7000074", "px": "P7", "street": "Kamenická", "code": 7000074 }, "geometry": { "type": "Point", "coordinates": [ 14.427779930000042, 50.09886584700007 ] } },
{ "type": "Feature", "properties": { "objectid": 64782, "id_poskyt": 38, "globalid": "{D6DC83C3-966B-4D1E-8B14-36B2DA63C6CC}", "pa": "7000073", "px": "P7", "street": "Milady Horákové", "code": 7000073 }, "geometry": { "type": "Point", "coordinates": [ 14.426629938000076, 50.099833266000076 ] } },
{ "type": "Feature", "properties": { "objectid": 64783, "id_poskyt": 38, "globalid": "{C5CBF613-BAB0-4930-AD50-188830D97AD1}", "pa": "7000072", "px": "P7", "street": "Milady Horákové", "code": 7000072 }, "geometry": { "type": "Point", "coordinates": [ 14.426628446000052, 50.099982322000074 ] } },
{ "type": "Feature", "properties": { "objectid": 64784, "id_poskyt": 38, "globalid": "{3FA77DA3-63BB-4DE5-AEA7-B773EDCE9A6F}", "pa": "7000071", "px": "P7", "street": "Milady Horákové", "code": 7000071 }, "geometry": { "type": "Point", "coordinates": [ 14.425662240000065, 50.100052199000061 ] } },
{ "type": "Feature", "properties": { "objectid": 64785, "id_poskyt": 38, "globalid": "{BAF6CE77-CBDA-46D6-B283-90ACC862E4C3}", "pa": "7000070", "px": "P7", "street": "Milady Horákové", "code": 7000070 }, "geometry": { "type": "Point", "coordinates": [ 14.425171724000052, 50.099937872000055 ] } },
{ "type": "Feature", "properties": { "objectid": 64786, "id_poskyt": 38, "globalid": "{A8D145C5-04FD-4CC4-89F4-46B1B297C0EB}", "pa": "7000069", "px": "P7", "street": "Milady Horákové", "code": 7000069 }, "geometry": { "type": "Point", "coordinates": [ 14.422400406000065, 50.099836574000051 ] } },
{ "type": "Feature", "properties": { "objectid": 64787, "id_poskyt": 38, "globalid": "{E77DDA48-78CB-4950-99D9-8DF41C99E473}", "pa": "7000068", "px": "P7", "street": "Letenské Náměstí", "code": 7000068 }, "geometry": { "type": "Point", "coordinates": [ 14.423264951000021, 50.100365307000061 ] } },
{ "type": "Feature", "properties": { "objectid": 64788, "id_poskyt": 38, "globalid": "{728FDE89-70F8-41CE-8B33-C8E1A113DAB2}", "pa": "7000067", "px": "P7", "street": "Veletržní", "code": 7000067 }, "geometry": { "type": "Point", "coordinates": [ 14.425377569000034, 50.100701080000078 ] } },
{ "type": "Feature", "properties": { "objectid": 64789, "id_poskyt": 38, "globalid": "{F18CC09B-308B-464D-804E-798040D8C3A0}", "pa": "7000066", "px": "P7", "street": "Kamenická", "code": 7000066 }, "geometry": { "type": "Point", "coordinates": [ 14.426685746000032, 50.101527966000049 ] } },
{ "type": "Feature", "properties": { "objectid": 64790, "id_poskyt": 38, "globalid": "{3C98FE60-8B34-49FD-AD92-7C59F483ADE5}", "pa": "7000064", "px": "P7", "street": "U Akademie", "code": 7000064 }, "geometry": { "type": "Point", "coordinates": [ 14.423756153000056, 50.10260276300005 ] } },
{ "type": "Feature", "properties": { "objectid": 64791, "id_poskyt": 38, "globalid": "{E21EA739-A0AC-4CB2-AF54-779D7667640C}", "pa": "7000063", "px": "P7", "street": "Nad Královskou Oborou", "code": 7000063 }, "geometry": { "type": "Point", "coordinates": [ 14.42009556000005, 50.102994709000029 ] } },
{ "type": "Feature", "properties": { "objectid": 64792, "id_poskyt": 38, "globalid": "{8B97466F-0FE9-4A86-8682-958C52B2F76E}", "pa": "7000062", "px": "P7", "street": "Nad Královskou Oborou", "code": 7000062 }, "geometry": { "type": "Point", "coordinates": [ 14.416103772000042, 50.101512586000069 ] } },
{ "type": "Feature", "properties": { "objectid": 64793, "id_poskyt": 38, "globalid": "{A934A604-5E9C-4137-A11A-D630E1779B02}", "pa": "7000061", "px": "P7", "street": "U Sparty", "code": 7000061 }, "geometry": { "type": "Point", "coordinates": [ 14.416978760000063, 50.099774646000071 ] } },
{ "type": "Feature", "properties": { "objectid": 64794, "id_poskyt": 38, "globalid": "{BDD569C8-6F8F-4205-BA6E-AA26093CFA96}", "pa": "7000059", "px": "P7", "street": "Muzejní", "code": 7000059 }, "geometry": { "type": "Point", "coordinates": [ 14.423904821000065, 50.097340238000072 ] } },
{ "type": "Feature", "properties": { "objectid": 64795, "id_poskyt": 38, "globalid": "{374C997F-5EBD-41F9-905D-1317A328ED35}", "pa": "7000058", "px": "P7", "street": "Kostelní", "code": 7000058 }, "geometry": { "type": "Point", "coordinates": [ 14.423480583000071, 50.096966498000029 ] } },
{ "type": "Feature", "properties": { "objectid": 64796, "id_poskyt": 38, "globalid": "{72573817-3AA3-46E5-BFFD-FB6AB3A924F0}", "pa": "7000057", "px": "P7", "street": "Kostelní", "code": 7000057 }, "geometry": { "type": "Point", "coordinates": [ 14.425140279000061, 50.097200070000042 ] } },
{ "type": "Feature", "properties": { "objectid": 64797, "id_poskyt": 38, "globalid": "{B7ADCB91-01AE-4E5C-8DA5-45910BA771B4}", "pa": "7000056", "px": "P7", "street": "Kostelní", "code": 7000056 }, "geometry": { "type": "Point", "coordinates": [ 14.425298673000043, 50.096825080000031 ] } },
{ "type": "Feature", "properties": { "objectid": 64798, "id_poskyt": 38, "globalid": "{5997EB5D-0A9B-4004-86A5-437B810BD2DE}", "pa": "7000055", "px": "P7", "street": "Kostelní", "code": 7000055 }, "geometry": { "type": "Point", "coordinates": [ 14.426394342000037, 50.097162832000038 ] } },
{ "type": "Feature", "properties": { "objectid": 64799, "id_poskyt": 38, "globalid": "{57B589DF-5E8A-48ED-83B8-8412548AAC77}", "pa": "7000054", "px": "P7", "street": "Dukelských Hrdinů", "code": 7000054 }, "geometry": { "type": "Point", "coordinates": [ 14.432440557000064, 50.096885598000028 ] } },
{ "type": "Feature", "properties": { "objectid": 64800, "id_poskyt": 38, "globalid": "{27016FC7-75A8-4BA8-8FF2-EC39E36F9E28}", "pa": "7000053", "px": "P7", "street": "Nábřeží Kapitána Jaroše", "code": 7000053 }, "geometry": { "type": "Point", "coordinates": [ 14.433391641000071, 50.096712904000071 ] } },
{ "type": "Feature", "properties": { "objectid": 64801, "id_poskyt": 38, "globalid": "{E9C94B6B-A4AE-4242-9E79-46ABB0F69345}", "pa": "7000052", "px": "P7", "street": "Na Ovčinách", "code": 7000052 }, "geometry": { "type": "Point", "coordinates": [ 14.433831014000077, 50.097661730000027 ] } },
{ "type": "Feature", "properties": { "objectid": 64802, "id_poskyt": 38, "globalid": "{AB447E75-FE84-47B4-B977-81E3A7B5D780}", "pa": "7000051", "px": "P7", "street": "Strossmayerovo Náměstí", "code": 7000051 }, "geometry": { "type": "Point", "coordinates": [ 14.435784493000028, 50.098771510000063 ] } },
{ "type": "Feature", "properties": { "objectid": 64803, "id_poskyt": 38, "globalid": "{2F7D6F81-AC74-4E90-8A52-5F7F63B202C1}", "pa": "7000050", "px": "P7", "street": "Bubenská (nn1340)", "code": 7000050 }, "geometry": { "type": "Point", "coordinates": [ 14.43631326700006, 50.098103843000047 ] } },
{ "type": "Feature", "properties": { "objectid": 64804, "id_poskyt": 38, "globalid": "{1B8FEF7A-ECFF-45A6-9EC5-C886A8A39550}", "pa": "7000049", "px": "P7", "street": "Bubenská (nn7275)", "code": 7000049 }, "geometry": { "type": "Point", "coordinates": [ 14.437153602000024, 50.098908490000042 ] } },
{ "type": "Feature", "properties": { "objectid": 64805, "id_poskyt": 38, "globalid": "{2C97B615-A91A-423A-B285-5886A58AFBBC}", "pa": "7000045", "px": "P7", "street": "U Topíren", "code": 7000045 }, "geometry": { "type": "Point", "coordinates": [ 14.44220105900007, 50.099112042000058 ] } },
{ "type": "Feature", "properties": { "objectid": 64806, "id_poskyt": 38, "globalid": "{6A5DEC1C-2BDF-4108-8B85-595389930938}", "pa": "7000043", "px": "P7", "street": "Osadní", "code": 7000043 }, "geometry": { "type": "Point", "coordinates": [ 14.446793010000022, 50.102728546000037 ] } },
{ "type": "Feature", "properties": { "objectid": 64807, "id_poskyt": 38, "globalid": "{8F61343C-1C3A-4FFD-B343-6E1066897EC5}", "pa": "7000042", "px": "P7", "street": "Dělnická", "code": 7000042 }, "geometry": { "type": "Point", "coordinates": [ 14.445788969000034, 50.103023535000034 ] } },
{ "type": "Feature", "properties": { "objectid": 64808, "id_poskyt": 38, "globalid": "{D624D67D-4C85-409B-9D0A-B6713F3E8660}", "pa": "7000041", "px": "P7", "street": "Dělnická", "code": 7000041 }, "geometry": { "type": "Point", "coordinates": [ 14.44432845800003, 50.10301766200007 ] } },
{ "type": "Feature", "properties": { "objectid": 64809, "id_poskyt": 38, "globalid": "{539EC98B-BFAE-4C3F-BE39-C6E27826C75F}", "pa": "7000040", "px": "P7", "street": "U Průhonu", "code": 7000040 }, "geometry": { "type": "Point", "coordinates": [ 14.445217736000075, 50.104945083000075 ] } },
{ "type": "Feature", "properties": { "objectid": 64810, "id_poskyt": 38, "globalid": "{9F9287D9-A8B6-46CD-B1D0-81365872B367}", "pa": "7000039", "px": "P7", "street": "Kouteckého", "code": 7000039 }, "geometry": { "type": "Point", "coordinates": [ 14.445101398000077, 50.10681270300006 ] } },
{ "type": "Feature", "properties": { "objectid": 64811, "id_poskyt": 38, "globalid": "{E082A46A-8015-4EAA-80B7-D208BA9CC877}", "pa": "7000038", "px": "P7", "street": "Osadní", "code": 7000038 }, "geometry": { "type": "Point", "coordinates": [ 14.446865337000077, 50.107095179000055 ] } },
{ "type": "Feature", "properties": { "objectid": 64812, "id_poskyt": 38, "globalid": "{CC50C5DC-F35E-4FCA-85CB-03A1AE1EAC15}", "pa": "7000037", "px": "P7", "street": "Poupětova", "code": 7000037 }, "geometry": { "type": "Point", "coordinates": [ 14.448456694000072, 50.10677013600008 ] } },
{ "type": "Feature", "properties": { "objectid": 64813, "id_poskyt": 38, "globalid": "{8D02506D-755C-4D80-87CF-F222537B45B4}", "pa": "7000036", "px": "P7", "street": "Ortenovo Náměstí", "code": 7000036 }, "geometry": { "type": "Point", "coordinates": [ 14.448924871000031, 50.107713106000062 ] } },
{ "type": "Feature", "properties": { "objectid": 64814, "id_poskyt": 38, "globalid": "{97EAD28E-3117-4CAD-A5ED-07F05B6FD099}", "pa": "7000035", "px": "P7", "street": "Komunardů", "code": 7000035 }, "geometry": { "type": "Point", "coordinates": [ 14.449966991000053, 50.106950105000067 ] } },
{ "type": "Feature", "properties": { "objectid": 64815, "id_poskyt": 38, "globalid": "{70B77298-1CEA-458E-A174-3D3EAFAC1EC3}", "pa": "7000034", "px": "P7", "street": "Komunardů", "code": 7000034 }, "geometry": { "type": "Point", "coordinates": [ 14.449987750000048, 50.106330047000029 ] } },
{ "type": "Feature", "properties": { "objectid": 64816, "id_poskyt": 38, "globalid": "{C84F704C-64AD-4A56-8E55-CA18B874C579}", "pa": "7000033", "px": "P7", "street": "Komunardů", "code": 7000033 }, "geometry": { "type": "Point", "coordinates": [ 14.449781290000033, 50.105561221000073 ] } },
{ "type": "Feature", "properties": { "objectid": 64817, "id_poskyt": 38, "globalid": "{81533557-5A90-4774-9B4E-8FBB144696F4}", "pa": "7000032", "px": "P7", "street": "U Průhonu", "code": 7000032 }, "geometry": { "type": "Point", "coordinates": [ 14.451417798000023, 50.105173587000081 ] } },
{ "type": "Feature", "properties": { "objectid": 64818, "id_poskyt": 38, "globalid": "{17BD32CB-B801-4190-AB31-846CA82B8B66}", "pa": "7000031", "px": "P7", "street": "Komunardů", "code": 7000031 }, "geometry": { "type": "Point", "coordinates": [ 14.449814459000038, 50.104565422000064 ] } },
{ "type": "Feature", "properties": { "objectid": 64819, "id_poskyt": 38, "globalid": "{0823F545-015D-4F03-BE72-C4BB36B30AB6}", "pa": "7000030", "px": "P7", "street": "Komunardů", "code": 7000030 }, "geometry": { "type": "Point", "coordinates": [ 14.450071764000029, 50.103621358000055 ] } },
{ "type": "Feature", "properties": { "objectid": 64820, "id_poskyt": 38, "globalid": "{D5ED71EC-29E5-4C5C-BA39-AD833A1D3CD8}", "pa": "7000029", "px": "P7", "street": "Komunardů", "code": 7000029 }, "geometry": { "type": "Point", "coordinates": [ 14.449899013000049, 50.102427721000026 ] } },
{ "type": "Feature", "properties": { "objectid": 64821, "id_poskyt": 38, "globalid": "{5AB2EED7-A790-4F82-AF15-AF60FBAC68ED}", "pa": "7000028", "px": "P7", "street": "Tusarova", "code": 7000028 }, "geometry": { "type": "Point", "coordinates": [ 14.44934816600005, 50.101423129000068 ] } },
{ "type": "Feature", "properties": { "objectid": 64822, "id_poskyt": 38, "globalid": "{BDF47390-7099-4EC8-8247-5F71481B9C31}", "pa": "7000027", "px": "P7", "street": "Jateční", "code": 7000027 }, "geometry": { "type": "Point", "coordinates": [ 14.451247598000066, 50.100299264000057 ] } },
{ "type": "Feature", "properties": { "objectid": 64823, "id_poskyt": 38, "globalid": "{88D6BF5C-2D6E-44FA-9FB1-61FE5CD18808}", "pa": "7000026", "px": "P7", "street": "Na Maninách", "code": 7000026 }, "geometry": { "type": "Point", "coordinates": [ 14.452455476000068, 50.101125827000033 ] } },
{ "type": "Feature", "properties": { "objectid": 64824, "id_poskyt": 38, "globalid": "{0558AD6B-412D-4039-9A6E-158489632AB7}", "pa": "7000025", "px": "P7", "street": "V Háji", "code": 7000025 }, "geometry": { "type": "Point", "coordinates": [ 14.454121714000053, 50.101455483000052 ] } },
{ "type": "Feature", "properties": { "objectid": 64825, "id_poskyt": 38, "globalid": "{1DDBF93E-B7FE-45F6-B7AA-DC2DDE1F5D0E}", "pa": "7000024", "px": "P7", "street": "V Háji", "code": 7000024 }, "geometry": { "type": "Point", "coordinates": [ 14.454245903000071, 50.10253854900003 ] } },
{ "type": "Feature", "properties": { "objectid": 64826, "id_poskyt": 38, "globalid": "{DD8B4DE7-1992-450E-815B-80641158FAEF}", "pa": "7000023", "px": "P7", "street": "Tusarova", "code": 7000023 }, "geometry": { "type": "Point", "coordinates": [ 14.453279362000046, 50.10196843600005 ] } },
{ "type": "Feature", "properties": { "objectid": 64827, "id_poskyt": 38, "globalid": "{7AE36752-3D76-48A1-967A-2FB1E2AF84FA}", "pa": "7000022", "px": "P7", "street": "Tusarova", "code": 7000022 }, "geometry": { "type": "Point", "coordinates": [ 14.454849442000068, 50.10199585600003 ] } },
{ "type": "Feature", "properties": { "objectid": 64828, "id_poskyt": 38, "globalid": "{4E62B7CB-EC62-4FFC-9C0F-2E5F9A75E66B}", "pa": "7000019", "px": "P7", "street": "Jankovcova", "code": 7000019 }, "geometry": { "type": "Point", "coordinates": [ 14.45598805000003, 50.104206839000028 ] } },
{ "type": "Feature", "properties": { "objectid": 64829, "id_poskyt": 38, "globalid": "{D8098A8D-65D0-426C-A2E9-E22E746F3D68}", "pa": "7000018", "px": "P7", "street": "Jankovcova", "code": 7000018 }, "geometry": { "type": "Point", "coordinates": [ 14.454794428000071, 50.107391604000043 ] } },
{ "type": "Feature", "properties": { "objectid": 64830, "id_poskyt": 38, "globalid": "{D7791E34-AA30-4311-8BBC-F4AB0DB5F876}", "pa": "7000017", "px": "P7", "street": "Jankovcova", "code": 7000017 }, "geometry": { "type": "Point", "coordinates": [ 14.45360303800004, 50.108482933000062 ] } },
{ "type": "Feature", "properties": { "objectid": 64831, "id_poskyt": 38, "globalid": "{6F1BEB43-F66B-4C87-97DE-BA543FA1FCAE}", "pa": "7000016", "px": "P7", "street": "Jankovcova", "code": 7000016 }, "geometry": { "type": "Point", "coordinates": [ 14.453079995000053, 50.109373744000038 ] } },
{ "type": "Feature", "properties": { "objectid": 64832, "id_poskyt": 38, "globalid": "{475CCAB7-22C6-40C4-8AD6-8A6AB0EB52E6}", "pa": "7000015", "px": "P7", "street": "Přívozní", "code": 7000015 }, "geometry": { "type": "Point", "coordinates": [ 14.451040784000043, 50.109131991000027 ] } },
{ "type": "Feature", "properties": { "objectid": 64833, "id_poskyt": 38, "globalid": "{DC1BB11B-28E9-443C-8D83-65C0D2D7EFA2}", "pa": "7000014", "px": "P7", "street": "Přívozní", "code": 7000014 }, "geometry": { "type": "Point", "coordinates": [ 14.451828096000042, 50.109466957000052 ] } },
{ "type": "Feature", "properties": { "objectid": 64834, "id_poskyt": 38, "globalid": "{DFA1E103-34ED-489C-863C-2F683FF8D0E3}", "pa": "7000013", "px": "P7", "street": "Jankovcova", "code": 7000013 }, "geometry": { "type": "Point", "coordinates": [ 14.450634670000056, 50.110456849000059 ] } },
{ "type": "Feature", "properties": { "objectid": 64835, "id_poskyt": 38, "globalid": "{7F76BB86-FAE1-4973-9873-860FABABDAEA}", "pa": "7000012", "px": "P7", "street": "Jankovcova", "code": 7000012 }, "geometry": { "type": "Point", "coordinates": [ 14.44971485700006, 50.110360464000053 ] } },
{ "type": "Feature", "properties": { "objectid": 64836, "id_poskyt": 38, "globalid": "{BF6A3BE5-9E7F-4E4F-B9A3-D68F687D0384}", "pa": "7000011", "px": "P7", "street": "U Pergamenky", "code": 7000011 }, "geometry": { "type": "Point", "coordinates": [ 14.447378, 50.110105006000026 ] } },
{ "type": "Feature", "properties": { "objectid": 64837, "id_poskyt": 38, "globalid": "{3F572721-C3A5-40E6-B2FB-E6797EB5B63E}", "pa": "7000008", "px": "P7", "street": "Vrbenského", "code": 7000008 }, "geometry": { "type": "Point", "coordinates": [ 14.446104495000043, 50.109152760000029 ] } },
{ "type": "Feature", "properties": { "objectid": 64838, "id_poskyt": 38, "globalid": "{876DD2C9-A0F1-45E8-B605-B8C4F2EE32DA}", "pa": "7000007", "px": "P7", "street": "Vrbenského", "code": 7000007 }, "geometry": { "type": "Point", "coordinates": [ 14.44045582800004, 50.109272241000042 ] } },
{ "type": "Feature", "properties": { "objectid": 64839, "id_poskyt": 38, "globalid": "{99028F2E-203A-4911-A5B3-46E45FE7B126}", "pa": "7000006", "px": "P7", "street": "Vrbenského", "code": 7000006 }, "geometry": { "type": "Point", "coordinates": [ 14.44059405400003, 50.109451376000038 ] } },
{ "type": "Feature", "properties": { "objectid": 64840, "id_poskyt": 38, "globalid": "{DCEF8BF1-AA17-4DE3-99B4-6738F45C3FA2}", "pa": "7000005", "px": "P7", "street": "V Závětří", "code": 7000005 }, "geometry": { "type": "Point", "coordinates": [ 14.444165290000058, 50.110719890000041 ] } },
{ "type": "Feature", "properties": { "objectid": 64841, "id_poskyt": 38, "globalid": "{7F6E9850-788C-4446-BA9F-4EC5C315EAE5}", "pa": "7000004", "px": "P7", "street": "Za Elektrárnou", "code": 7000004 }, "geometry": { "type": "Point", "coordinates": [ 14.427501363000033, 50.110664014000065 ] } },
{ "type": "Feature", "properties": { "objectid": 64842, "id_poskyt": 38, "globalid": "{1B047889-461B-4A64-B0B9-45551619AD2B}", "pa": "7000003", "px": "P7", "street": "Za Elektrárnou", "code": 7000003 }, "geometry": { "type": "Point", "coordinates": [ 14.424437554000065, 50.110657768000067 ] } },
{ "type": "Feature", "properties": { "objectid": 64843, "id_poskyt": 38, "globalid": "{FAE932ED-F334-41DF-94C8-04756034CFB8}", "pa": "7000002", "px": "P7", "street": "Za Elektrárnou", "code": 7000002 }, "geometry": { "type": "Point", "coordinates": [ 14.420574652000028, 50.110659902000066 ] } },
{ "type": "Feature", "properties": { "objectid": 64844, "id_poskyt": 38, "globalid": "{4B0825A8-C209-400A-9EFE-C42E98610048}", "pa": "7000001", "px": "P7", "street": "Za Elektrárnou", "code": 7000001 }, "geometry": { "type": "Point", "coordinates": [ 14.41801498500007, 50.110668089000058 ] } },
{ "type": "Feature", "properties": { "objectid": 64845, "id_poskyt": 38, "globalid": "{5CCF658F-10CB-4BA0-97F7-1882D64B184C}", "pa": "6000167", "px": "P6", "street": "Čs. Armády", "code": 6000167 }, "geometry": { "type": "Point", "coordinates": [ 14.401209297000037, 50.100453403000074 ] } },
{ "type": "Feature", "properties": { "objectid": 64846, "id_poskyt": 38, "globalid": "{87D9BD06-6B47-4D7F-A190-945154E00C9E}", "pa": "6000166", "px": "P6", "street": "Lužná", "code": 6000166 }, "geometry": { "type": "Point", "coordinates": [ 14.345786427000064, 50.101253288000066 ] } },
{ "type": "Feature", "properties": { "objectid": 64847, "id_poskyt": 38, "globalid": "{B7D1188B-F858-49DE-89BB-23A02DE2564B}", "pa": "6000165", "px": "P6", "street": "V Středu", "code": 6000165 }, "geometry": { "type": "Point", "coordinates": [ 14.344531124000071, 50.098670558000038 ] } },
{ "type": "Feature", "properties": { "objectid": 64848, "id_poskyt": 38, "globalid": "{B5F001D9-4B51-4B2C-A0E8-4C0CB45AADCA}", "pa": "6000164", "px": "P6", "street": "Na Vypichu", "code": 6000164 }, "geometry": { "type": "Point", "coordinates": [ 14.342842595000036, 50.082570660000044 ] } },
{ "type": "Feature", "properties": { "objectid": 64849, "id_poskyt": 38, "globalid": "{72287E58-BC23-4038-A997-C752CD45D832}", "pa": "6000163", "px": "P6", "street": "Na Vypichu", "code": 6000163 }, "geometry": { "type": "Point", "coordinates": [ 14.342233252000028, 50.083165214000076 ] } },
{ "type": "Feature", "properties": { "objectid": 64850, "id_poskyt": 38, "globalid": "{77BEAD3F-4FFB-4802-94B7-CC8E17F7C479}", "pa": "6000162", "px": "P6", "street": "Na Vypichu", "code": 6000162 }, "geometry": { "type": "Point", "coordinates": [ 14.339742276000038, 50.084230570000045 ] } },
{ "type": "Feature", "properties": { "objectid": 64851, "id_poskyt": 38, "globalid": "{57B8796F-D20F-4A37-A721-EAC081ABE946}", "pa": "6000161", "px": "P6", "street": "Na Okraji", "code": 6000161 }, "geometry": { "type": "Point", "coordinates": [ 14.34878585000007, 50.090781539000034 ] } },
{ "type": "Feature", "properties": { "objectid": 64852, "id_poskyt": 38, "globalid": "{8026078C-9A38-4540-9455-83C096E497BE}", "pa": "6000160", "px": "P6", "street": "Lužná", "code": 6000160 }, "geometry": { "type": "Point", "coordinates": [ 14.341136893000055, 50.100489922000065 ] } },
{ "type": "Feature", "properties": { "objectid": 64853, "id_poskyt": 38, "globalid": "{1AE92D4E-E6E6-4440-9846-3FC7CB70A2A8}", "pa": "6000159", "px": "P6", "street": "Na Rozdílu", "code": 6000159 }, "geometry": { "type": "Point", "coordinates": [ 14.36453719800005, 50.095721540000056 ] } },
{ "type": "Feature", "properties": { "objectid": 64854, "id_poskyt": 38, "globalid": "{7A2EFEAB-8099-4155-B434-F5BD3D8E094F}", "pa": "6000157", "px": "P6", "street": "Na Zátorce", "code": 6000157 }, "geometry": { "type": "Point", "coordinates": [ 14.409342062000064, 50.099945516000048 ] } },
{ "type": "Feature", "properties": { "objectid": 64855, "id_poskyt": 38, "globalid": "{1CC8892F-4692-4445-A8B9-DF87DDA7CF36}", "pa": "6000156", "px": "P6", "street": "Romaina Rollanda", "code": 6000156 }, "geometry": { "type": "Point", "coordinates": [ 14.410547703000077, 50.100935378000031 ] } },
{ "type": "Feature", "properties": { "objectid": 64856, "id_poskyt": 38, "globalid": "{170CEA6F-D31C-4047-A224-354D913A0741}", "pa": "6000155", "px": "P6", "street": "Romaina Rollanda", "code": 6000155 }, "geometry": { "type": "Point", "coordinates": [ 14.411837551000076, 50.10182769100004 ] } },
{ "type": "Feature", "properties": { "objectid": 64857, "id_poskyt": 38, "globalid": "{18B60F56-551E-49C1-8193-62B36BFD80DD}", "pa": "6000154", "px": "P6", "street": "Náměstí Borise Němcova", "code": 6000154 }, "geometry": { "type": "Point", "coordinates": [ 14.411902201000032, 50.103221296000072 ] } },
{ "type": "Feature", "properties": { "objectid": 64858, "id_poskyt": 38, "globalid": "{2D01780E-7192-4279-8639-E2F68756971B}", "pa": "6000153", "px": "P6", "street": "Lotyšská", "code": 6000153 }, "geometry": { "type": "Point", "coordinates": [ 14.396314564000022, 50.104281104000052 ] } },
{ "type": "Feature", "properties": { "objectid": 64859, "id_poskyt": 38, "globalid": "{BF768EE0-6C3F-41BF-B68E-A7FCC4D7B13C}", "pa": "6000152", "px": "P6", "street": "Gotthardská", "code": 6000152 }, "geometry": { "type": "Point", "coordinates": [ 14.408594468000047, 50.103903328000058 ] } },
{ "type": "Feature", "properties": { "objectid": 64860, "id_poskyt": 38, "globalid": "{7BEB05D2-28C6-4050-B8CE-559EF5269804}", "pa": "6000151", "px": "P6", "street": "Krupkovo Náměstí", "code": 6000151 }, "geometry": { "type": "Point", "coordinates": [ 14.407852950000063, 50.104384856000081 ] } },
{ "type": "Feature", "properties": { "objectid": 64861, "id_poskyt": 38, "globalid": "{F1C4AE10-30BC-4A23-8045-424C31D9384C}", "pa": "6000150", "px": "P6", "street": "Puškinovo Náměstí", "code": 6000150 }, "geometry": { "type": "Point", "coordinates": [ 14.402437463000069, 50.102747936000071 ] } },
{ "type": "Feature", "properties": { "objectid": 64862, "id_poskyt": 38, "globalid": "{FFA1D562-5359-41CF-AC09-C2D49A35D7C0}", "pa": "6000149", "px": "P6", "street": "Českomalínská", "code": 6000149 }, "geometry": { "type": "Point", "coordinates": [ 14.403703868000036, 50.103767686000026 ] } },
{ "type": "Feature", "properties": { "objectid": 64863, "id_poskyt": 38, "globalid": "{FAAEBF5A-2B5E-4BE5-A3EA-AEF1447F1466}", "pa": "6000148", "px": "P6", "street": "Heineho", "code": 6000148 }, "geometry": { "type": "Point", "coordinates": [ 14.402432126000065, 50.105580961000044 ] } },
{ "type": "Feature", "properties": { "objectid": 64864, "id_poskyt": 38, "globalid": "{BC0811D6-52AA-44E0-8B47-73147602E81F}", "pa": "6000147", "px": "P6", "street": "Heineho", "code": 6000147 }, "geometry": { "type": "Point", "coordinates": [ 14.404718169000034, 50.10549039700004 ] } },
{ "type": "Feature", "properties": { "objectid": 64865, "id_poskyt": 38, "globalid": "{A82ABB52-6491-4A75-9300-A450D686650A}", "pa": "6000145", "px": "P6", "street": "Pelléova", "code": 6000145 }, "geometry": { "type": "Point", "coordinates": [ 14.406842887000039, 50.102736098000037 ] } },
{ "type": "Feature", "properties": { "objectid": 64866, "id_poskyt": 38, "globalid": "{4FFE53D1-E1DA-4019-96FF-6683AA7754F4}", "pa": "6000144", "px": "P6", "street": "Ronalda Reagana", "code": 6000144 }, "geometry": { "type": "Point", "coordinates": [ 14.406350275000023, 50.101077114000077 ] } },
{ "type": "Feature", "properties": { "objectid": 64867, "id_poskyt": 38, "globalid": "{3CC929E5-59C4-45FB-B046-63BDE0ACF3BB}", "pa": "6000143", "px": "P6", "street": "Dr. Zikmunda Wintra", "code": 6000143 }, "geometry": { "type": "Point", "coordinates": [ 14.402675668000029, 50.10137188200008 ] } },
{ "type": "Feature", "properties": { "objectid": 64868, "id_poskyt": 38, "globalid": "{20676EE1-EA09-4829-A72B-D7ED3B8F47EA}", "pa": "6000142", "px": "P6", "street": "Dr. Zikmunda Wintra", "code": 6000142 }, "geometry": { "type": "Point", "coordinates": [ 14.401562349000073, 50.101594159000058 ] } },
{ "type": "Feature", "properties": { "objectid": 64869, "id_poskyt": 38, "globalid": "{4C2F17FB-ECDB-4874-A782-52547327D2B8}", "pa": "6000141", "px": "P6", "street": "Dr. Zikmunda Wintra", "code": 6000141 }, "geometry": { "type": "Point", "coordinates": [ 14.400942641000029, 50.101955143000055 ] } },
{ "type": "Feature", "properties": { "objectid": 64870, "id_poskyt": 38, "globalid": "{AB0D99EA-0DC1-4878-B4AD-72752B4D5840}", "pa": "6000140", "px": "P6", "street": "Verdunská", "code": 6000140 }, "geometry": { "type": "Point", "coordinates": [ 14.400156136000021, 50.102753663000044 ] } },
{ "type": "Feature", "properties": { "objectid": 64871, "id_poskyt": 38, "globalid": "{9CFDE1C4-119B-4DCB-8ADE-157C781B2760}", "pa": "6000139", "px": "P6", "street": "Na Marně", "code": 6000139 }, "geometry": { "type": "Point", "coordinates": [ 14.399444682000023, 50.10450568400006 ] } },
{ "type": "Feature", "properties": { "objectid": 64872, "id_poskyt": 38, "globalid": "{65B3FF4D-F93F-4387-B2D8-834A91114AE5}", "pa": "6000138", "px": "P6", "street": "Maďarská", "code": 6000138 }, "geometry": { "type": "Point", "coordinates": [ 14.398307267000064, 50.105945639000026 ] } },
{ "type": "Feature", "properties": { "objectid": 64873, "id_poskyt": 38, "globalid": "{E944EC11-0FAF-4E5A-9895-B5FA82AB85A4}", "pa": "6000137", "px": "P6", "street": "Maďarská", "code": 6000137 }, "geometry": { "type": "Point", "coordinates": [ 14.399910323000029, 50.106980687000032 ] } },
{ "type": "Feature", "properties": { "objectid": 64874, "id_poskyt": 38, "globalid": "{6F499B1E-DDC2-47AA-9329-699D872365A1}", "pa": "6000136", "px": "P6", "street": "Antonína Čermáka", "code": 6000136 }, "geometry": { "type": "Point", "coordinates": [ 14.400199893000035, 50.107444069000053 ] } },
{ "type": "Feature", "properties": { "objectid": 64875, "id_poskyt": 38, "globalid": "{B7D7171A-2820-4DE2-B3D7-A425F921EF99}", "pa": "6000135", "px": "P6", "street": "Březovského", "code": 6000135 }, "geometry": { "type": "Point", "coordinates": [ 14.398466601000052, 50.107785727000078 ] } },
{ "type": "Feature", "properties": { "objectid": 64876, "id_poskyt": 38, "globalid": "{2EFE7E61-9486-4B42-A98D-9062B87679B4}", "pa": "6000134", "px": "P6", "street": "Vítězné Náměstí", "code": 6000134 }, "geometry": { "type": "Point", "coordinates": [ 14.39617843700006, 50.101319182000054 ] } },
{ "type": "Feature", "properties": { "objectid": 64877, "id_poskyt": 38, "globalid": "{84B57F9D-FD33-4CC2-8081-5BBB2CF318E2}", "pa": "6000133", "px": "P6", "street": "Národní Obrany", "code": 6000133 }, "geometry": { "type": "Point", "coordinates": [ 14.397681940000041, 50.101500521000048 ] } },
{ "type": "Feature", "properties": { "objectid": 64878, "id_poskyt": 38, "globalid": "{7D736593-3BE4-40F0-9D60-A6F441B637D1}", "pa": "6000132", "px": "P6", "street": "Terronská", "code": 6000132 }, "geometry": { "type": "Point", "coordinates": [ 14.399196851000056, 50.101829614000053 ] } },
{ "type": "Feature", "properties": { "objectid": 64879, "id_poskyt": 38, "globalid": "{B1C15B31-48B1-48B6-A61C-D71FBA72D9E8}", "pa": "6000131", "px": "P6", "street": "Terronská", "code": 6000131 }, "geometry": { "type": "Point", "coordinates": [ 14.39744926700007, 50.10517427700006 ] } },
{ "type": "Feature", "properties": { "objectid": 64880, "id_poskyt": 38, "globalid": "{C9C6C437-49F6-4395-9EF5-9F2F2BDB4C5A}", "pa": "6000130", "px": "P6", "street": "Terronská", "code": 6000130 }, "geometry": { "type": "Point", "coordinates": [ 14.395610057000056, 50.107859236000081 ] } },
{ "type": "Feature", "properties": { "objectid": 64881, "id_poskyt": 38, "globalid": "{9B926E53-554D-4C62-AE9A-1F10E27CB9F8}", "pa": "6000129", "px": "P6", "street": "Juárezova", "code": 6000129 }, "geometry": { "type": "Point", "coordinates": [ 14.404321441000036, 50.106347701000061 ] } },
{ "type": "Feature", "properties": { "objectid": 64882, "id_poskyt": 38, "globalid": "{8319CB3B-A2BD-42CB-AB8D-56D925178462}", "pa": "6000128", "px": "P6", "street": "Maďarská", "code": 6000128 }, "geometry": { "type": "Point", "coordinates": [ 14.401795659000072, 50.10760521800006 ] } },
{ "type": "Feature", "properties": { "objectid": 64883, "id_poskyt": 38, "globalid": "{00C07490-938A-48B1-81AD-443AEC9710F1}", "pa": "6000127", "px": "P6", "street": "Ve Struhách", "code": 6000127 }, "geometry": { "type": "Point", "coordinates": [ 14.399434746000054, 50.109171120000042 ] } },
{ "type": "Feature", "properties": { "objectid": 64884, "id_poskyt": 38, "globalid": "{EE3A8552-5B7C-4055-880E-227CC5C0C276}", "pa": "6000126", "px": "P6", "street": "Ve Struhách", "code": 6000126 }, "geometry": { "type": "Point", "coordinates": [ 14.396609683000065, 50.110575690000076 ] } },
{ "type": "Feature", "properties": { "objectid": 64885, "id_poskyt": 38, "globalid": "{2F14D8DB-2B84-43B5-8C3E-83BC864D5F97}", "pa": "6000125", "px": "P6", "street": "Ve Struhách", "code": 6000125 }, "geometry": { "type": "Point", "coordinates": [ 14.394889540000065, 50.11155702700006 ] } },
{ "type": "Feature", "properties": { "objectid": 64886, "id_poskyt": 38, "globalid": "{1D0431D9-85CC-4238-9527-222DB10A36E2}", "pa": "6000124", "px": "P6", "street": "Papírenská", "code": 6000124 }, "geometry": { "type": "Point", "coordinates": [ 14.403359008000052, 50.108896973000071 ] } },
{ "type": "Feature", "properties": { "objectid": 64887, "id_poskyt": 38, "globalid": "{77D8997F-885D-469A-B91A-9CF3970EFE85}", "pa": "6000123", "px": "P6", "street": "Papírenská", "code": 6000123 }, "geometry": { "type": "Point", "coordinates": [ 14.401222645000075, 50.110139829000047 ] } },
{ "type": "Feature", "properties": { "objectid": 64888, "id_poskyt": 38, "globalid": "{F10C0A7F-FE58-48C0-8D70-A42B9B06DB05}", "pa": "6000122", "px": "P6", "street": "Terronská (nn7487)", "code": 6000122 }, "geometry": { "type": "Point", "coordinates": [ 14.394613488000061, 50.109514239000077 ] } },
{ "type": "Feature", "properties": { "objectid": 64889, "id_poskyt": 38, "globalid": "{78B8633D-A9C1-4E1A-B4B6-8BF93A891B16}", "pa": "6000121", "px": "P6", "street": "Jugoslávských Partyzánů", "code": 6000121 }, "geometry": { "type": "Point", "coordinates": [ 14.394775572000071, 50.107686462000061 ] } },
{ "type": "Feature", "properties": { "objectid": 64890, "id_poskyt": 38, "globalid": "{15AF50FA-2D78-413A-8646-EEA45F1595EA}", "pa": "6000120", "px": "P6", "street": "Jugoslávských Partyzánů", "code": 6000120 }, "geometry": { "type": "Point", "coordinates": [ 14.394976041000064, 50.106088407000072 ] } },
{ "type": "Feature", "properties": { "objectid": 64891, "id_poskyt": 38, "globalid": "{6A529132-8282-4A0F-AD63-2BD001236AAA}", "pa": "6000119", "px": "P6", "street": "Jugoslávských Partyzánů", "code": 6000119 }, "geometry": { "type": "Point", "coordinates": [ 14.39507277000007, 50.105298359000074 ] } },
{ "type": "Feature", "properties": { "objectid": 64892, "id_poskyt": 38, "globalid": "{C434F122-79C9-48D4-ABEC-957A841B5AD0}", "pa": "6000118", "px": "P6", "street": "Jugoslávských Partyzánů", "code": 6000118 }, "geometry": { "type": "Point", "coordinates": [ 14.395341245000054, 50.103133117000027 ] } },
{ "type": "Feature", "properties": { "objectid": 64893, "id_poskyt": 38, "globalid": "{91B97C6B-A1DC-4138-9786-92A070CF6920}", "pa": "6000116", "px": "P6", "street": "Jugoslávských Partyzánů", "code": 6000116 }, "geometry": { "type": "Point", "coordinates": [ 14.394597044000022, 50.10528234800006 ] } },
{ "type": "Feature", "properties": { "objectid": 64894, "id_poskyt": 38, "globalid": "{739619C6-22C6-46C3-909A-DAF2ECDB350D}", "pa": "6000115", "px": "P6", "street": "Jugoslávských Partyzánů", "code": 6000115 }, "geometry": { "type": "Point", "coordinates": [ 14.394450272000029, 50.106460342000048 ] } },
{ "type": "Feature", "properties": { "objectid": 64895, "id_poskyt": 38, "globalid": "{FDF98F4F-CD62-4558-AE35-145EF03CDDF1}", "pa": "6000114", "px": "P6", "street": "Jugoslávských Partyzánů", "code": 6000114 }, "geometry": { "type": "Point", "coordinates": [ 14.394284956000035, 50.107797814000037 ] } },
{ "type": "Feature", "properties": { "objectid": 64896, "id_poskyt": 38, "globalid": "{B393011C-22B6-40FE-9556-7DB26ECF8CC3}", "pa": "6000113", "px": "P6", "street": "Koulova", "code": 6000113 }, "geometry": { "type": "Point", "coordinates": [ 14.393778274000056, 50.109498189000078 ] } },
{ "type": "Feature", "properties": { "objectid": 64897, "id_poskyt": 38, "globalid": "{BE63414C-3F52-4EA6-9112-98BFC0A9FC30}", "pa": "6000112", "px": "P6", "street": "Parléřova", "code": 6000112 }, "geometry": { "type": "Point", "coordinates": [ 14.386427165000043, 50.087609007000026 ] } },
{ "type": "Feature", "properties": { "objectid": 64898, "id_poskyt": 38, "globalid": "{DE94F448-E15C-42B8-9E9D-54854F9C3783}", "pa": "6000111", "px": "P6", "street": "Myslbekova", "code": 6000111 }, "geometry": { "type": "Point", "coordinates": [ 14.384528531000058, 50.086548201000028 ] } },
{ "type": "Feature", "properties": { "objectid": 64899, "id_poskyt": 38, "globalid": "{A88C4B20-D360-4D7D-BA73-23A9696C7402}", "pa": "6000110", "px": "P6", "street": "Za Hládkovem", "code": 6000110 }, "geometry": { "type": "Point", "coordinates": [ 14.383252359000039, 50.087882241000045 ] } },
{ "type": "Feature", "properties": { "objectid": 64900, "id_poskyt": 38, "globalid": "{2C0ACDA2-B297-4B35-A3F8-E49E45A46C17}", "pa": "6000109", "px": "P6", "street": "Bělohorská", "code": 6000109 }, "geometry": { "type": "Point", "coordinates": [ 14.38402790300006, 50.086107259000073 ] } },
{ "type": "Feature", "properties": { "objectid": 64901, "id_poskyt": 38, "globalid": "{79ABC9D8-958F-4501-8C39-C9D8CE8A05BE}", "pa": "6000108", "px": "P6", "street": "Šlikova", "code": 6000108 }, "geometry": { "type": "Point", "coordinates": [ 14.380223232000048, 50.084381504000078 ] } },
{ "type": "Feature", "properties": { "objectid": 64902, "id_poskyt": 38, "globalid": "{9691E929-22B8-4847-8594-A2F978F30DC1}", "pa": "6000107", "px": "P6", "street": "Bělohorská", "code": 6000107 }, "geometry": { "type": "Point", "coordinates": [ 14.380131536000022, 50.085126335000041 ] } },
{ "type": "Feature", "properties": { "objectid": 64903, "id_poskyt": 38, "globalid": "{88DC6334-2999-49CD-BDE1-8092989984C1}", "pa": "6000105", "px": "P6", "street": "Bělohorská", "code": 6000105 }, "geometry": { "type": "Point", "coordinates": [ 14.37746770900003, 50.084950224000067 ] } },
{ "type": "Feature", "properties": { "objectid": 64904, "id_poskyt": 38, "globalid": "{E35857DC-5962-4921-9C7B-6ABE05FEB52C}", "pa": "6000104", "px": "P6", "street": "Šlikova", "code": 6000104 }, "geometry": { "type": "Point", "coordinates": [ 14.376874064000049, 50.083661483000071 ] } },
{ "type": "Feature", "properties": { "objectid": 64905, "id_poskyt": 38, "globalid": "{271D5A08-B72C-4206-85CF-FB6674C7627C}", "pa": "6000103", "px": "P6", "street": "Pod Marjánkou", "code": 6000103 }, "geometry": { "type": "Point", "coordinates": [ 14.376377073000072, 50.085169144000076 ] } },
{ "type": "Feature", "properties": { "objectid": 64906, "id_poskyt": 38, "globalid": "{74D3B3F0-23D4-475A-B987-2E188F0BE331}", "pa": "6000102", "px": "P6", "street": "Bělohorská", "code": 6000102 }, "geometry": { "type": "Point", "coordinates": [ 14.374900298000057, 50.084315530000026 ] } },
{ "type": "Feature", "properties": { "objectid": 64907, "id_poskyt": 38, "globalid": "{D837450A-E038-46C4-83F7-195841C8E40E}", "pa": "6000101", "px": "P6", "street": "Bělohorská", "code": 6000101 }, "geometry": { "type": "Point", "coordinates": [ 14.373398422000037, 50.084298790000048 ] } },
{ "type": "Feature", "properties": { "objectid": 64908, "id_poskyt": 38, "globalid": "{4A1D75C3-D70E-4290-B30E-F3472E197DD0}", "pa": "6000100", "px": "P6", "street": "Bělohorská", "code": 6000100 }, "geometry": { "type": "Point", "coordinates": [ 14.372237104000021, 50.083839490000059 ] } },
{ "type": "Feature", "properties": { "objectid": 64909, "id_poskyt": 38, "globalid": "{1ABE2B29-2401-4383-9A4E-33AEB4079CEC}", "pa": "6000099", "px": "P6", "street": "Bělohorská", "code": 6000099 }, "geometry": { "type": "Point", "coordinates": [ 14.371060295000063, 50.084028748000037 ] } },
{ "type": "Feature", "properties": { "objectid": 64910, "id_poskyt": 38, "globalid": "{589C3FFD-05D4-4DC0-9E5A-D19E57DB6A73}", "pa": "6000098", "px": "P6", "street": "Bělohorská", "code": 6000098 }, "geometry": { "type": "Point", "coordinates": [ 14.370403191000037, 50.083828095000058 ] } },
{ "type": "Feature", "properties": { "objectid": 64911, "id_poskyt": 38, "globalid": "{67721920-6FCD-44A8-A81C-BCBD554805E5}", "pa": "6000097", "px": "P6", "street": "Mládeže", "code": 6000097 }, "geometry": { "type": "Point", "coordinates": [ 14.36877918700003, 50.085823041000026 ] } },
{ "type": "Feature", "properties": { "objectid": 64912, "id_poskyt": 38, "globalid": "{13D82CF5-5680-4489-88E0-CADDF7642EE2}", "pa": "6000096", "px": "P6", "street": "Bělohorská", "code": 6000096 }, "geometry": { "type": "Point", "coordinates": [ 14.369005218000041, 50.084108786000058 ] } },
{ "type": "Feature", "properties": { "objectid": 64913, "id_poskyt": 38, "globalid": "{6DEE9E4D-24BA-4181-AEA3-8F7158B922FF}", "pa": "6000095", "px": "P6", "street": "Bělohorská", "code": 6000095 }, "geometry": { "type": "Point", "coordinates": [ 14.367525199000056, 50.083959923000066 ] } },
{ "type": "Feature", "properties": { "objectid": 64914, "id_poskyt": 38, "globalid": "{3AB64AD6-72D0-45C5-AD87-A3BF37376074}", "pa": "6000094", "px": "P6", "street": "Bělohorská", "code": 6000094 }, "geometry": { "type": "Point", "coordinates": [ 14.366758094000033, 50.084191707000059 ] } },
{ "type": "Feature", "properties": { "objectid": 64915, "id_poskyt": 38, "globalid": "{6F19BA0E-C311-4224-B002-A3573AFA6AF3}", "pa": "6000093", "px": "P6", "street": "Pod Marjánkou", "code": 6000093 }, "geometry": { "type": "Point", "coordinates": [ 14.365647672000023, 50.084655186000077 ] } },
{ "type": "Feature", "properties": { "objectid": 64916, "id_poskyt": 38, "globalid": "{67F921B2-BED9-4575-BF11-209B021D5852}", "pa": "6000092", "px": "P6", "street": "Bělohorská", "code": 6000092 }, "geometry": { "type": "Point", "coordinates": [ 14.365085732000068, 50.083803198000055 ] } },
{ "type": "Feature", "properties": { "objectid": 64917, "id_poskyt": 38, "globalid": "{54733D94-451B-4F66-B0FC-76E5E5C18BCB}", "pa": "6000091", "px": "P6", "street": "Bělohorská", "code": 6000091 }, "geometry": { "type": "Point", "coordinates": [ 14.363993700000037, 50.083847988000059 ] } },
{ "type": "Feature", "properties": { "objectid": 64918, "id_poskyt": 38, "globalid": "{B1614F3E-76EE-45E7-AF4F-0F6F041A4E8E}", "pa": "6000090", "px": "P6", "street": "Bělohorská", "code": 6000090 }, "geometry": { "type": "Point", "coordinates": [ 14.361624590000076, 50.083594394000045 ] } },
{ "type": "Feature", "properties": { "objectid": 64919, "id_poskyt": 38, "globalid": "{3B90751B-DC9D-4A26-9FC6-80C8F5A210BC}", "pa": "6000089", "px": "P6", "street": "Bělohorská", "code": 6000089 }, "geometry": { "type": "Point", "coordinates": [ 14.358969126000034, 50.083088824000072 ] } },
{ "type": "Feature", "properties": { "objectid": 64920, "id_poskyt": 38, "globalid": "{B8D0C42F-E8ED-4F63-99D0-3BB7BD4326CC}", "pa": "6000088", "px": "P6", "street": "Nad Alejí", "code": 6000088 }, "geometry": { "type": "Point", "coordinates": [ 14.342184667000026, 50.084500615000081 ] } },
{ "type": "Feature", "properties": { "objectid": 64921, "id_poskyt": 38, "globalid": "{C6AD071B-B64D-4A49-A3D8-DE23A793DEBD}", "pa": "6000087", "px": "P6", "street": "Šantrochova", "code": 6000087 }, "geometry": { "type": "Point", "coordinates": [ 14.349361066000029, 50.088623081000037 ] } },
{ "type": "Feature", "properties": { "objectid": 64922, "id_poskyt": 38, "globalid": "{94FC98CB-76E7-430D-B916-58A0A09CDC41}", "pa": "6000086", "px": "P6", "street": "Na Petřinách (nn1474)", "code": 6000086 }, "geometry": { "type": "Point", "coordinates": [ 14.347609658000067, 50.089024510000058 ] } },
{ "type": "Feature", "properties": { "objectid": 64923, "id_poskyt": 38, "globalid": "{3C92CC2F-E302-4904-BF3C-775124E201A4}", "pa": "6000085", "px": "P6", "street": "Peštukova", "code": 6000085 }, "geometry": { "type": "Point", "coordinates": [ 14.344446478000066, 50.089130050000051 ] } },
{ "type": "Feature", "properties": { "objectid": 64924, "id_poskyt": 38, "globalid": "{2D10A1C1-FBF9-445D-B280-F79229D52C1A}", "pa": "6000084", "px": "P6", "street": "Brunclíkova", "code": 6000084 }, "geometry": { "type": "Point", "coordinates": [ 14.344513791000054, 50.087251096000045 ] } },
{ "type": "Feature", "properties": { "objectid": 64925, "id_poskyt": 38, "globalid": "{C1E9598F-4369-4C6A-9246-87BA1E1A1188}", "pa": "6000083", "px": "P6", "street": "Na Petřinách (nn1473)", "code": 6000083 }, "geometry": { "type": "Point", "coordinates": [ 14.34363866700005, 50.088156599000058 ] } },
{ "type": "Feature", "properties": { "objectid": 64926, "id_poskyt": 38, "globalid": "{3A89E5C9-C41E-4F7C-8432-D02C3DB68D29}", "pa": "6000082", "px": "P6", "street": "U Petřin", "code": 6000082 }, "geometry": { "type": "Point", "coordinates": [ 14.341100090000054, 50.086753995000038 ] } },
{ "type": "Feature", "properties": { "objectid": 64927, "id_poskyt": 38, "globalid": "{423596E5-E2C1-4BE2-A4CC-8051193B9818}", "pa": "6000081", "px": "P6", "street": "Na Souvrati", "code": 6000081 }, "geometry": { "type": "Point", "coordinates": [ 14.340661817000068, 50.088768174000052 ] } },
{ "type": "Feature", "properties": { "objectid": 64928, "id_poskyt": 38, "globalid": "{67CDFA8A-C933-4FEF-A796-F843232B8C0E}", "pa": "6000080", "px": "P6", "street": "Na Ořechovce", "code": 6000080 }, "geometry": { "type": "Point", "coordinates": [ 14.389118353000072, 50.094821398000079 ] } },
{ "type": "Feature", "properties": { "objectid": 64929, "id_poskyt": 38, "globalid": "{06B68597-4168-4B2F-8132-F5A046825C02}", "pa": "6000079", "px": "P6", "street": "Dělostřelecká", "code": 6000079 }, "geometry": { "type": "Point", "coordinates": [ 14.390249951000044, 50.096003427000028 ] } },
{ "type": "Feature", "properties": { "objectid": 64930, "id_poskyt": 38, "globalid": "{B09571E4-D99F-4774-B3B5-CCFE36949CD1}", "pa": "6000078", "px": "P6", "street": "Generála Píky", "code": 6000078 }, "geometry": { "type": "Point", "coordinates": [ 14.393812432000061, 50.098162990000048 ] } },
{ "type": "Feature", "properties": { "objectid": 64931, "id_poskyt": 38, "globalid": "{C3FBE020-687D-42A6-96FB-5B0057AE962B}", "pa": "6000077", "px": "P6", "street": "Generála Píky", "code": 6000077 }, "geometry": { "type": "Point", "coordinates": [ 14.394536983000023, 50.098254952000048 ] } },
{ "type": "Feature", "properties": { "objectid": 64932, "id_poskyt": 38, "globalid": "{0B070C99-01E2-4CC4-A734-D97D82ED47C3}", "pa": "6000076", "px": "P6", "street": "Svatovítská (nn2074)", "code": 6000076 }, "geometry": { "type": "Point", "coordinates": [ 14.395414327000026, 50.098759165000047 ] } },
{ "type": "Feature", "properties": { "objectid": 64933, "id_poskyt": 38, "globalid": "{2C5678A2-7623-4FD2-824E-95ADF46E0F63}", "pa": "6000075", "px": "P6", "street": "Buzulucká", "code": 6000075 }, "geometry": { "type": "Point", "coordinates": [ 14.393941659000063, 50.099378098000045 ] } },
{ "type": "Feature", "properties": { "objectid": 64934, "id_poskyt": 38, "globalid": "{C8D6A39A-2DC8-40E2-803B-E76C64F9F21A}", "pa": "6000074", "px": "P6", "street": "Vítězné Náměstí", "code": 6000074 }, "geometry": { "type": "Point", "coordinates": [ 14.394795311000053, 50.099916134000068 ] } },
{ "type": "Feature", "properties": { "objectid": 64935, "id_poskyt": 38, "globalid": "{4001776C-EB9D-4A87-A803-E6D64E3E4628}", "pa": "6000073", "px": "P6", "street": "Velvarská", "code": 6000073 }, "geometry": { "type": "Point", "coordinates": [ 14.386429866000071, 50.099299173000077 ] } },
{ "type": "Feature", "properties": { "objectid": 64936, "id_poskyt": 38, "globalid": "{34326BE5-FCC0-4056-AA7E-F858BD9871EF}", "pa": "6000072", "px": "P6", "street": "Evropská", "code": 6000072 }, "geometry": { "type": "Point", "coordinates": [ 14.389080597000032, 50.10011637100007 ] } },
{ "type": "Feature", "properties": { "objectid": 64937, "id_poskyt": 38, "globalid": "{98DAE1B6-AF18-4A8E-90CE-9EC40994C189}", "pa": "6000071", "px": "P6", "street": "Studentská", "code": 6000071 }, "geometry": { "type": "Point", "coordinates": [ 14.389355071000068, 50.100402551000059 ] } },
{ "type": "Feature", "properties": { "objectid": 64938, "id_poskyt": 38, "globalid": "{44679414-5192-4994-93F2-9144F342A275}", "pa": "6000070", "px": "P6", "street": "Kolejní", "code": 6000070 }, "geometry": { "type": "Point", "coordinates": [ 14.385720640000045, 50.100884043000065 ] } },
{ "type": "Feature", "properties": { "objectid": 64939, "id_poskyt": 38, "globalid": "{88C8120C-7C50-4B0A-B873-BDFF4D0B8864}", "pa": "6000069", "px": "P6", "street": "Zikova", "code": 6000069 }, "geometry": { "type": "Point", "coordinates": [ 14.39053844700004, 50.101636940000049 ] } },
{ "type": "Feature", "properties": { "objectid": 64940, "id_poskyt": 38, "globalid": "{8B535276-2D49-4BCC-AD5D-639A7A21E557}", "pa": "6000068", "px": "P6", "street": "Thákurova", "code": 6000068 }, "geometry": { "type": "Point", "coordinates": [ 14.38695425800006, 50.101599882000073 ] } },
{ "type": "Feature", "properties": { "objectid": 64941, "id_poskyt": 38, "globalid": "{BC061985-8C51-4785-A135-C8D681DAAD1A}", "pa": "6000067", "px": "P6", "street": "Technická", "code": 6000067 }, "geometry": { "type": "Point", "coordinates": [ 14.392178735000073, 50.102529680000032 ] } },
{ "type": "Feature", "properties": { "objectid": 64942, "id_poskyt": 38, "globalid": "{E2AA58AC-CF43-43B1-8C99-EEC29BD54A91}", "pa": "6000066", "px": "P6", "street": "Technická", "code": 6000066 }, "geometry": { "type": "Point", "coordinates": [ 14.391490800000042, 50.102559495000037 ] } },
{ "type": "Feature", "properties": { "objectid": 64943, "id_poskyt": 38, "globalid": "{BF40A4DC-AE8E-4198-96A4-8014DE0989E7}", "pa": "6000065", "px": "P6", "street": "Zikova", "code": 6000065 }, "geometry": { "type": "Point", "coordinates": [ 14.387659761000066, 50.102313480000078 ] } },
{ "type": "Feature", "properties": { "objectid": 64944, "id_poskyt": 38, "globalid": "{24957BE7-9452-440A-A183-92DE9CEFAAFB}", "pa": "6000064", "px": "P6", "street": "Kolejní", "code": 6000064 }, "geometry": { "type": "Point", "coordinates": [ 14.386281110000027, 50.102626783000062 ] } },
{ "type": "Feature", "properties": { "objectid": 64945, "id_poskyt": 38, "globalid": "{E47143A8-F44F-4CFF-9FE6-ECC96BB1DF01}", "pa": "6000063", "px": "P6", "street": "Studentská", "code": 6000063 }, "geometry": { "type": "Point", "coordinates": [ 14.390993088000073, 50.103550789000053 ] } },
{ "type": "Feature", "properties": { "objectid": 64946, "id_poskyt": 38, "globalid": "{4F04E0E6-75E4-41F9-AFF5-9EDAEAEF5C47}", "pa": "6000062", "px": "P6", "street": "Flemingovo Náměstí", "code": 6000062 }, "geometry": { "type": "Point", "coordinates": [ 14.390737984000054, 50.105065379000052 ] } },
{ "type": "Feature", "properties": { "objectid": 64947, "id_poskyt": 38, "globalid": "{12579095-2CEB-4162-919A-A5C25BF90F65}", "pa": "6000061", "px": "P6", "street": "Bílá", "code": 6000061 }, "geometry": { "type": "Point", "coordinates": [ 14.387042232000056, 50.105034264000039 ] } },
{ "type": "Feature", "properties": { "objectid": 64948, "id_poskyt": 38, "globalid": "{4DABF525-24FC-4390-A909-77D9B15C0884}", "pa": "6000060", "px": "P6", "street": "Zelená", "code": 6000060 }, "geometry": { "type": "Point", "coordinates": [ 14.392497063000064, 50.106752030000052 ] } },
{ "type": "Feature", "properties": { "objectid": 64949, "id_poskyt": 38, "globalid": "{93407570-A0E3-4133-871A-4E96C82BD3E0}", "pa": "6000059", "px": "P6", "street": "Božkova", "code": 6000059 }, "geometry": { "type": "Point", "coordinates": [ 14.386783666000042, 50.106128474000059 ] } },
{ "type": "Feature", "properties": { "objectid": 64950, "id_poskyt": 38, "globalid": "{0122142A-65A1-4A2A-93CD-E48F228EAC9A}", "pa": "6000058", "px": "P6", "street": "Zelená", "code": 6000058 }, "geometry": { "type": "Point", "coordinates": [ 14.393173646000037, 50.107090764000077 ] } },
{ "type": "Feature", "properties": { "objectid": 64951, "id_poskyt": 38, "globalid": "{BB99EA4A-70A0-4410-A420-A46EA60F993E}", "pa": "6000057", "px": "P6", "street": "Zelená", "code": 6000057 }, "geometry": { "type": "Point", "coordinates": [ 14.389775090000057, 50.107033646000048 ] } },
{ "type": "Feature", "properties": { "objectid": 64952, "id_poskyt": 38, "globalid": "{3B582D74-BDDE-4D94-91D7-BB20A2402D3D}", "pa": "6000056", "px": "P6", "street": "Náměstí Na Santince", "code": 6000056 }, "geometry": { "type": "Point", "coordinates": [ 14.387368912000056, 50.10685184600004 ] } },
{ "type": "Feature", "properties": { "objectid": 64953, "id_poskyt": 38, "globalid": "{F02805D3-7AEB-4081-B51F-FA5D72D7ADAC}", "pa": "6000055", "px": "P6", "street": "Šlejnická", "code": 6000055 }, "geometry": { "type": "Point", "coordinates": [ 14.390201944000069, 50.107961985000031 ] } },
{ "type": "Feature", "properties": { "objectid": 64954, "id_poskyt": 38, "globalid": "{ED7B405E-E454-4E9E-9F07-183F45B26824}", "pa": "6000054", "px": "P6", "street": "Zengrova", "code": 6000054 }, "geometry": { "type": "Point", "coordinates": [ 14.385710336000045, 50.108001479000052 ] } },
{ "type": "Feature", "properties": { "objectid": 64955, "id_poskyt": 38, "globalid": "{0710CAE8-C3CC-413D-8D89-8088F7B5E980}", "pa": "6000053", "px": "P6", "street": "Pod Juliskou", "code": 6000053 }, "geometry": { "type": "Point", "coordinates": [ 14.392626829000051, 50.110291605000043 ] } },
{ "type": "Feature", "properties": { "objectid": 64956, "id_poskyt": 38, "globalid": "{446A5DFE-01C2-42CC-8406-B8C04B6F5F44}", "pa": "6000052", "px": "P6", "street": "Pod Juliskou", "code": 6000052 }, "geometry": { "type": "Point", "coordinates": [ 14.390231592000077, 50.110144551000076 ] } },
{ "type": "Feature", "properties": { "objectid": 64957, "id_poskyt": 38, "globalid": "{0266459F-E986-4B4E-8BF8-2397623B65F7}", "pa": "6000051", "px": "P6", "street": "Na Julisce", "code": 6000051 }, "geometry": { "type": "Point", "coordinates": [ 14.387640632000057, 50.110012808000079 ] } },
{ "type": "Feature", "properties": { "objectid": 64958, "id_poskyt": 38, "globalid": "{1D243E22-5026-4D0D-A6AA-43877CDD34A7}", "pa": "6000050", "px": "P6", "street": "Velvarská", "code": 6000050 }, "geometry": { "type": "Point", "coordinates": [ 14.38091799700004, 50.09930864200004 ] } },
{ "type": "Feature", "properties": { "objectid": 64959, "id_poskyt": 38, "globalid": "{B15148DC-34E2-4721-82BB-AA9767AD8329}", "pa": "6000049", "px": "P6", "street": "Kanadská", "code": 6000049 }, "geometry": { "type": "Point", "coordinates": [ 14.379280368000025, 50.098506388000033 ] } },
{ "type": "Feature", "properties": { "objectid": 64960, "id_poskyt": 38, "globalid": "{B07517A6-8180-4566-8D6F-438EEE531389}", "pa": "6000048", "px": "P6", "street": "Velvarská", "code": 6000048 }, "geometry": { "type": "Point", "coordinates": [ 14.376693289000059, 50.098843048000049 ] } },
{ "type": "Feature", "properties": { "objectid": 64961, "id_poskyt": 38, "globalid": "{AF9E088E-4283-4DD7-A2A4-B6FD7C7856DB}", "pa": "6000047", "px": "P6", "street": "Proboštská", "code": 6000047 }, "geometry": { "type": "Point", "coordinates": [ 14.375730196000063, 50.09728351900003 ] } },
{ "type": "Feature", "properties": { "objectid": 64962, "id_poskyt": 38, "globalid": "{E4B89DDF-83ED-494F-805D-D4F0225BC2C8}", "pa": "6000046", "px": "P6", "street": "Zavadilova", "code": 6000046 }, "geometry": { "type": "Point", "coordinates": [ 14.373650825000027, 50.098529016000043 ] } },
{ "type": "Feature", "properties": { "objectid": 64963, "id_poskyt": 38, "globalid": "{873EF16C-3591-4ABF-8FDD-9ACE091F03EC}", "pa": "6000045", "px": "P6", "street": "Na Sekyrce", "code": 6000045 }, "geometry": { "type": "Point", "coordinates": [ 14.371809533000032, 50.09951846000007 ] } },
{ "type": "Feature", "properties": { "objectid": 64964, "id_poskyt": 38, "globalid": "{034689AB-0F37-467A-8A14-81F9F20003B7}", "pa": "6000044", "px": "P6", "street": "Vilímovská", "code": 6000044 }, "geometry": { "type": "Point", "coordinates": [ 14.367966774000024, 50.099345396000047 ] } },
{ "type": "Feature", "properties": { "objectid": 64965, "id_poskyt": 38, "globalid": "{F0EE239B-F648-4766-B514-66DA4D8936C5}", "pa": "6000043", "px": "P6", "street": "Kladenská", "code": 6000043 }, "geometry": { "type": "Point", "coordinates": [ 14.365966748000062, 50.097729464000054 ] } },
{ "type": "Feature", "properties": { "objectid": 64966, "id_poskyt": 38, "globalid": "{7CE4699E-503E-4DBA-ADB0-88AEF8572810}", "pa": "6000042", "px": "P6", "street": "Na Dlouhém Lánu (nn2966)", "code": 6000042 }, "geometry": { "type": "Point", "coordinates": [ 14.364780630000041, 50.096647251000036 ] } },
{ "type": "Feature", "properties": { "objectid": 64967, "id_poskyt": 38, "globalid": "{1602C3E7-3FD0-4D04-A61B-689A4F0F58FB}", "pa": "6000041", "px": "P6", "street": "Liberijská", "code": 6000041 }, "geometry": { "type": "Point", "coordinates": [ 14.364455048000025, 50.097883461000038 ] } },
{ "type": "Feature", "properties": { "objectid": 64968, "id_poskyt": 38, "globalid": "{2DE3C0C2-35DD-4EFA-9A09-0E566169B390}", "pa": "6000040", "px": "P6", "street": "Kladenská", "code": 6000040 }, "geometry": { "type": "Point", "coordinates": [ 14.361319525000056, 50.096841701000073 ] } },
{ "type": "Feature", "properties": { "objectid": 64969, "id_poskyt": 38, "globalid": "{9C485722-E6D5-4EDB-8397-C70443C0CB2A}", "pa": "6000039", "px": "P6", "street": "Tobrucká", "code": 6000039 }, "geometry": { "type": "Point", "coordinates": [ 14.360227077000047, 50.102006520000032 ] } },
{ "type": "Feature", "properties": { "objectid": 64970, "id_poskyt": 38, "globalid": "{8B6E9F8B-3863-4F35-8080-42FB1FE511EA}", "pa": "6000038", "px": "P6", "street": "Syrská", "code": 6000038 }, "geometry": { "type": "Point", "coordinates": [ 14.359908162000067, 50.098952383000039 ] } },
{ "type": "Feature", "properties": { "objectid": 64971, "id_poskyt": 38, "globalid": "{48F9035A-46B0-4A57-AAE1-2EAAD7C51F9B}", "pa": "6000037", "px": "P6", "street": "Evropská (nn5134)", "code": 6000037 }, "geometry": { "type": "Point", "coordinates": [ 14.359233868000047, 50.097569646000068 ] } },
{ "type": "Feature", "properties": { "objectid": 64972, "id_poskyt": 38, "globalid": "{9519DC9F-D30D-4484-92C8-7AB577A288EE}", "pa": "6000036", "px": "P6", "street": "Kladenská", "code": 6000036 }, "geometry": { "type": "Point", "coordinates": [ 14.35522553800007, 50.095286030000068 ] } },
{ "type": "Feature", "properties": { "objectid": 64973, "id_poskyt": 38, "globalid": "{AF87C26A-5F38-4936-98E2-6EC0945B9D39}", "pa": "6000035", "px": "P6", "street": "Kladenská", "code": 6000035 }, "geometry": { "type": "Point", "coordinates": [ 14.350911193000059, 50.095183937000058 ] } },
{ "type": "Feature", "properties": { "objectid": 64974, "id_poskyt": 38, "globalid": "{C1E16EA4-375E-41C6-92D5-5825C2732E02}", "pa": "6000034", "px": "P6", "street": "Veleslavínská", "code": 6000034 }, "geometry": { "type": "Point", "coordinates": [ 14.349790103000032, 50.09235671600004 ] } },
{ "type": "Feature", "properties": { "objectid": 64975, "id_poskyt": 38, "globalid": "{A0D627F0-28D7-49D5-9A49-1958AA92AFED}", "pa": "6000033", "px": "P6", "street": "Veleslavínská", "code": 6000033 }, "geometry": { "type": "Point", "coordinates": [ 14.349195121000037, 50.093817991000037 ] } },
{ "type": "Feature", "properties": { "objectid": 64976, "id_poskyt": 38, "globalid": "{7E44A87B-A48F-4CEA-868D-897284E94446}", "pa": "6000032", "px": "P6", "street": "U Vokovické Školy", "code": 6000032 }, "geometry": { "type": "Point", "coordinates": [ 14.346389908000049, 50.096615962000044 ] } },
{ "type": "Feature", "properties": { "objectid": 64977, "id_poskyt": 38, "globalid": "{54F7F92F-CB84-49B6-B441-8B1F3DDE903E}", "pa": "6000031", "px": "P6", "street": "Na Luzích", "code": 6000031 }, "geometry": { "type": "Point", "coordinates": [ 14.343848435000041, 50.097550271000046 ] } },
{ "type": "Feature", "properties": { "objectid": 64978, "id_poskyt": 38, "globalid": "{F2AA1930-E903-446A-B89D-DCD4D3F3FB4C}", "pa": "6000030", "px": "P6", "street": "U Vorlíků", "code": 6000030 }, "geometry": { "type": "Point", "coordinates": [ 14.410943588000066, 50.099353006000058 ] } },
{ "type": "Feature", "properties": { "objectid": 64979, "id_poskyt": 38, "globalid": "{9334E528-0102-4292-BFB7-D08FE7B81FE9}", "pa": "6000027", "px": "P6", "street": "Tychonova", "code": 6000027 }, "geometry": { "type": "Point", "coordinates": [ 14.403424119000022, 50.095790642000054 ] } },
{ "type": "Feature", "properties": { "objectid": 64980, "id_poskyt": 38, "globalid": "{78544AB0-2B15-4180-A9DF-980D18CD4371}", "pa": "6000026", "px": "P6", "street": "Tychonova", "code": 6000026 }, "geometry": { "type": "Point", "coordinates": [ 14.403915048000044, 50.094402003000027 ] } },
{ "type": "Feature", "properties": { "objectid": 64981, "id_poskyt": 38, "globalid": "{2C1255D0-49DF-4777-A51A-F13D80726B43}", "pa": "6000024", "px": "P6", "street": "K Brusce", "code": 6000024 }, "geometry": { "type": "Point", "coordinates": [ 14.405384568000045, 50.096673612000075 ] } },
{ "type": "Feature", "properties": { "objectid": 64982, "id_poskyt": 38, "globalid": "{09BE559F-E840-4603-97AD-391F11715F20}", "pa": "6000022", "px": "P6", "street": "Pod Valy", "code": 6000022 }, "geometry": { "type": "Point", "coordinates": [ 14.401344637000022, 50.095704069000078 ] } },
{ "type": "Feature", "properties": { "objectid": 64983, "id_poskyt": 38, "globalid": "{E0AF6159-DEAA-49F3-8E1C-340B5DE4400B}", "pa": "6000021", "px": "P6", "street": "Srbská", "code": 6000021 }, "geometry": { "type": "Point", "coordinates": [ 14.405856284000038, 50.098801589000061 ] } },
{ "type": "Feature", "properties": { "objectid": 64984, "id_poskyt": 38, "globalid": "{0CB4587C-7A2B-48E5-AA8E-A4EB36B3C861}", "pa": "6000020", "px": "P6", "street": "Jaselská", "code": 6000020 }, "geometry": { "type": "Point", "coordinates": [ 14.403897234000056, 50.099191645000076 ] } },
{ "type": "Feature", "properties": { "objectid": 64985, "id_poskyt": 38, "globalid": "{8E800730-0E8C-4B7E-A470-D1205219742D}", "pa": "6000019", "px": "P6", "street": "Bubenečská", "code": 6000019 }, "geometry": { "type": "Point", "coordinates": [ 14.404401211000049, 50.098585091000075 ] } },
{ "type": "Feature", "properties": { "objectid": 64986, "id_poskyt": 38, "globalid": "{40732DDA-0A1D-4FE0-8992-1BB4B94DFA90}", "pa": "6000018", "px": "P6", "street": "Bubenečská", "code": 6000018 }, "geometry": { "type": "Point", "coordinates": [ 14.404206800000054, 50.098550745000068 ] } },
{ "type": "Feature", "properties": { "objectid": 64987, "id_poskyt": 38, "globalid": "{DA4DCB0C-0622-4AE4-8349-55817CADE1A3}", "pa": "6000017", "px": "P6", "street": "Dejvická", "code": 6000017 }, "geometry": { "type": "Point", "coordinates": [ 14.403764225000032, 50.097964055000034 ] } },
{ "type": "Feature", "properties": { "objectid": 64988, "id_poskyt": 38, "globalid": "{C09D79DA-49B1-401C-A257-4DD649041663}", "pa": "6000016", "px": "P6", "street": "Dejvická", "code": 6000016 }, "geometry": { "type": "Point", "coordinates": [ 14.402050150000036, 50.097691293000025 ] } },
{ "type": "Feature", "properties": { "objectid": 64989, "id_poskyt": 38, "globalid": "{D10E0F5F-6FC9-4771-A8AA-C0B936A36DB1}", "pa": "6000015", "px": "P6", "street": "Václavkova", "code": 6000015 }, "geometry": { "type": "Point", "coordinates": [ 14.400598010000067, 50.097432472000037 ] } },
{ "type": "Feature", "properties": { "objectid": 64990, "id_poskyt": 38, "globalid": "{74E10721-B8E4-4A4B-A899-24DB56B05077}", "pa": "6000014", "px": "P6", "street": "Václavkova", "code": 6000014 }, "geometry": { "type": "Point", "coordinates": [ 14.398136610000051, 50.097206939000046 ] } },
{ "type": "Feature", "properties": { "objectid": 64991, "id_poskyt": 38, "globalid": "{A6F3D399-8A7F-47C2-B9CB-D96FEEC13E38}", "pa": "6000013", "px": "P6", "street": "Dejvická", "code": 6000013 }, "geometry": { "type": "Point", "coordinates": [ 14.400601943000026, 50.098171207000064 ] } },
{ "type": "Feature", "properties": { "objectid": 64992, "id_poskyt": 38, "globalid": "{AEE8936D-B570-48E4-99FC-24918538F855}", "pa": "6000012", "px": "P6", "street": "Dejvická", "code": 6000012 }, "geometry": { "type": "Point", "coordinates": [ 14.398877678000076, 50.098653582000054 ] } },
{ "type": "Feature", "properties": { "objectid": 64993, "id_poskyt": 38, "globalid": "{6206D497-AD30-4E0D-9659-C48D9DDD362B}", "pa": "6000011", "px": "P6", "street": "Dejvická", "code": 6000011 }, "geometry": { "type": "Point", "coordinates": [ 14.397851980000041, 50.099389440000039 ] } },
{ "type": "Feature", "properties": { "objectid": 64994, "id_poskyt": 38, "globalid": "{216E2232-0691-440C-896D-A00C866B6E4D}", "pa": "6000010", "px": "P6", "street": "Svatovítská (nn2074)", "code": 6000010 }, "geometry": { "type": "Point", "coordinates": [ 14.396004020000078, 50.098869175000061 ] } },
{ "type": "Feature", "properties": { "objectid": 64995, "id_poskyt": 38, "globalid": "{1068C33F-CA4B-4143-84FD-85C77DB9DF58}", "pa": "6000009", "px": "P6", "street": "Národní Obrany", "code": 6000009 }, "geometry": { "type": "Point", "coordinates": [ 14.401298620000034, 50.09945177000003 ] } },
{ "type": "Feature", "properties": { "objectid": 64996, "id_poskyt": 38, "globalid": "{DD0A7EC1-1532-4A75-BF1A-FF451FFC5BFA}", "pa": "6000008", "px": "P6", "street": "Jilemnického", "code": 6000008 }, "geometry": { "type": "Point", "coordinates": [ 14.401268461000029, 50.099955166000029 ] } },
{ "type": "Feature", "properties": { "objectid": 64997, "id_poskyt": 38, "globalid": "{8FD9B7F1-1039-4651-B200-0AEDD73B053B}", "pa": "6000007", "px": "P6", "street": "V. P. Čkalova", "code": 6000007 }, "geometry": { "type": "Point", "coordinates": [ 14.400295462000031, 50.099664589000042 ] } },
{ "type": "Feature", "properties": { "objectid": 64998, "id_poskyt": 38, "globalid": "{B3E979D2-BE89-4C0B-BDFC-EAB01BAD447C}", "pa": "6000006", "px": "P6", "street": "Národní Obrany", "code": 6000006 }, "geometry": { "type": "Point", "coordinates": [ 14.399162800000056, 50.099745006000035 ] } },
{ "type": "Feature", "properties": { "objectid": 64999, "id_poskyt": 38, "globalid": "{7D41E487-5803-4054-B15D-EDFE0F9CE410}", "pa": "6000005", "px": "P6", "street": "Národní Obrany", "code": 6000005 }, "geometry": { "type": "Point", "coordinates": [ 14.398392973000057, 50.100176152000074 ] } },
{ "type": "Feature", "properties": { "objectid": 65000, "id_poskyt": 38, "globalid": "{3294CBE3-19AC-42D7-88E3-A5EEADF35017}", "pa": "6000002", "px": "P6", "street": "Čs. Armády", "code": 6000002 }, "geometry": { "type": "Point", "coordinates": [ 14.401612816000068, 50.100592821000077 ] } },
{ "type": "Feature", "properties": { "objectid": 65001, "id_poskyt": 38, "globalid": "{8DF939AC-15AA-4ED1-9394-66FB60D8BFA9}", "pa": "6000001", "px": "P6", "street": "Národní Obrany", "code": 6000001 }, "geometry": { "type": "Point", "coordinates": [ 14.398067309000055, 50.100864057000081 ] } },
{ "type": "Feature", "properties": { "objectid": 65002, "id_poskyt": 38, "globalid": "{3A97B528-B4AC-4C9B-9979-E84ECB97C446}", "pa": "5000112", "px": "P5", "street": "Roentgenova", "code": 5000112 }, "geometry": { "type": "Point", "coordinates": [ 14.351670661000071, 50.074842239000077 ] } },
{ "type": "Feature", "properties": { "objectid": 65003, "id_poskyt": 38, "globalid": "{9F406511-989E-449D-89F1-9D2D50F46EED}", "pa": "5000111", "px": "P5", "street": "Lumiérů", "code": 5000111 }, "geometry": { "type": "Point", "coordinates": [ 14.392614825000067, 50.031384261000028 ] } },